{
"RECORDS":[
{
"ID":6050,
"NAME":"上巢湖至吉阳矶",
"LEG":"长江下游",
"FEATURECLASS":"N01",
"SMALLCLASS":"N0101",
"REGION":"南京",
"GEOMORDINATESARRAY":"[115.49931,29.84021813,115.5157912,29.8380767,115.5299352,29.83722534,115.5586062,29.83667022,115.5784678,29.83772718,115.6093646,29.83931912,115.6262534,29.84016907,115.6677545,29.84859032,115.6791579,29.84969015,115.698021,29.84250134,115.7206749,29.82907562,115.7406205,29.815926,115.7582885,29.80432099,115.7789285,29.79092468,115.7908222,29.78471235,115.8048406,29.77471475,115.8175724,29.7624119,115.8275253,29.75379345,115.8501356,29.74348837,115.8756399,29.73328515,115.9015987,29.72510688,115.9138498,29.72217882,115.9325315,29.72070082,115.948347,29.72183752,115.9754557,29.73232577,115.9954553,29.74017719,116.0227798,29.74931022,116.046736,29.75875382,116.0662008,29.76344484,116.0898951,29.76506863,116.1069195,29.76667188,116.1303015,29.76901946,116.1466934,29.77086535,116.1608001,29.77095567,116.1932932,29.76467425,116.2086054,29.76069967,116.2189335,29.75862401,116.2259786,29.75860935,116.2369497,29.7668916,116.2523016,29.78054877,116.2770902,29.79405487,116.3006029,29.80707483,116.3114084,29.81302199,116.334767,29.82645485,116.3562282,29.84012545,116.380439,29.85259931,116.4071981,29.86626077,116.4312592,29.87897755,116.450306,29.89054562,116.4703218,29.90230954,116.4754984,29.90423761,116.5062478,29.90503534,116.5303947,29.90425501,116.5415706,29.90736018,116.5517935,29.92005749,116.5545065,29.933656,116.5591906,29.94616368,116.5769951,29.95987041,116.6004579,29.96444534,116.6163945,29.96968193,116.6341971,29.97987218,116.6475823,29.99114011,116.6496466,30.00069478,116.6517404,30.01139847,116.6750163,30.02608531,116.6886253,30.03424648,116.6983897,30.03953079,116.7166391,30.0465197,116.7365708,30.0552858,116.7615891,30.07106285,116.7749465,30.08256878,116.7938494,30.09957378,116.8098227,30.1117014,116.8194142,30.12236427,116.8315071,30.13530285,116.8422503,30.1497241,116.8520491,30.16429753,116.8616756,30.17743751,116.8667967,30.18215442,116.8796922,30.19038791,116.8839217,30.19179429,116.8969832,30.20931457,116.9041202,30.22470777,116.9052827,30.23257298,116.9154279,30.25441608,116.9257583,30.27281329,116.9310114,30.29260269,116.9259817,30.30352453,116.913355,30.32139411]",
"END_LAT":30.32139411,
"END_LON":116.9310114,
"START_LAT":29.72070082,
"START_LON":115.49931,
"BASETYPE":"1",
"DUIYINGDICENG":null,
"CREATE_TIME":"2017\/9\/20 14:45:10",
"CREATOR":null,
"REMARK":null,
"ATTRIBUTION_A":"计划维护水深,6",
"ATTRIBUTION_B":"计划维护宽度,220",
"ATTRIBUTION_C":"实际维护水深,6.8",
"ATTRIBUTION_D":"实际维护宽度,230",
"ATTRIBUTION_E":null,
"ATTRIBUTION_F":null,
"ATTRIBUTION_G":null,
"ATTRIBUTION_H":null,
"ATTRIBUTION_I":null,
"ATTRIBUTION_J":null,
"EDIT_TIME":"2018\/5\/2 13:30:34",
"EDITOR":"pmy",
"DESCRIBE":null,
"IMAGE":null,
"OUTINTERFACE":null,
"status":"1"
},
{
"ID":6051,
"NAME":"吉阳矶至高安圩",
"LEG":"长江下游",
"FEATURECLASS":"N01",
"SMALLCLASS":"N0101",
"REGION":"南京",
"GEOMORDINATESARRAY":"[116.913355,30.32139411,116.9029813,30.33482612,116.8933807,30.36770285,116.880069,30.40807864,116.878764,30.41938242,116.8813576,30.43366413,116.8905425,30.44093985,116.9261911,30.449438,116.9548808,30.457414,116.9770252,30.46443859,116.9936474,30.47775248,117.0105329,30.49098462,117.0219404,30.49838927,117.0468992,30.49932309,117.0741011,30.4987526,117.1016826,30.50255487,117.1047005,30.5035196,117.1254157,30.51013924,117.1512004,30.52336171,117.164572,30.52880102,117.1733884,30.53030647,117.1905774,30.53372347,117.2012571,30.53500716,117.2249105,30.53601992,117.2359063,30.53899376,117.2413059,30.54474073,117.2427816,30.54631127,117.2482214,30.56835161,117.2497734,30.57837593,117.2488478,30.58518137,117.2432796,30.59673685,117.2276225,30.60446459,117.2256521,30.60661617,117.2294968,30.6133308,117.2307243,30.62133401,117.23245,30.628164,117.2389549,30.63658818,117.2443594,30.64169552,117.255286,30.64850868,117.2729674,30.65683313,117.2961435,30.66807186,117.3287337,30.68996612,117.3575349,30.70145289,117.3748672,30.70734467,117.4012081,30.71945794,117.4119951,30.72461619,117.4371712,30.73041358,117.4560577,30.72537678,117.4740526,30.72110934,117.4835101,30.71940858,117.499239,30.72159532,117.5294818,30.73471835,117.5521557,30.74707597,117.5706401,30.75640006,117.5943961,30.76530792,117.6213887,30.77381392,117.6453025,30.78207156,117.6696464,30.79146091,117.7030508,30.81207565,117.715793,30.82364428,117.7260207,30.84059548,117.7281931,30.86187169,117.7332196,30.88798959,117.7349053,30.90302501,117.7356193,30.90939186,117.7313577,30.94070392,117.7278848,30.96377173,117.7243603,30.98762313,117.7233887,30.99486921,117.7253099,31.01519013,117.7333553,31.03808086,117.7427375,31.05591585,117.7461926,31.06358832,117.7533081,31.07938502,117.7630009,31.09927597,117.7754744,31.11635472,117.8030848,31.13382128,117.8288182,31.14348433,117.8484055,31.1420799,117.8631938,31.13594584,117.8763679,31.12081977,117.8814629,31.10387692,117.8890521,31.08446558,117.8967086,31.07346951,117.9071001,31.06670354,117.9189936,31.06367506,117.9358859,31.06443698,117.9517125,31.07271251,117.9665534,31.08263537,117.9796984,31.09038767,117.9945941,31.10576117,117.9969326,31.12180593,117.9959604,31.13797566,117.9970674,31.15101993,118.0030382,31.16469528,118.0171967,31.17508537,118.0330302,31.18008502,118.0458196,31.1849379,118.0571223,31.19384285,118.0650415,31.20221756,118.0736388,31.20883528,118.0936654,31.21651783]",
"END_LAT":31.21651783,
"END_LON":118.0936654,
"START_LAT":30.32139411,
"START_LON":116.878764,
"BASETYPE":"1",
"DUIYINGDICENG":null,
"CREATE_TIME":"2017\/9\/20 14:45:10",
"CREATOR":null,
"REMARK":null,
"ATTRIBUTION_A":"计划维护水深,8",
"ATTRIBUTION_B":"计划维护宽度,220",
"ATTRIBUTION_C":"实际维护水深,8.1",
"ATTRIBUTION_D":"实际维护宽度,230",
"ATTRIBUTION_E":null,
"ATTRIBUTION_F":null,
"ATTRIBUTION_G":null,
"ATTRIBUTION_H":null,
"ATTRIBUTION_I":null,
"ATTRIBUTION_J":null,
"EDIT_TIME":"2018\/5\/2 13:30:34",
"EDITOR":"pmy",
"DESCRIBE":null,
"IMAGE":null,
"OUTINTERFACE":null,
"status":"1"
},
{
"ID":6052,
"NAME":"高安圩至芜湖长江大桥",
"LEG":"长江下游",
"FEATURECLASS":"N01",
"SMALLCLASS":"N0101",
"REGION":"南京",
"GEOMORDINATESARRAY":"[118.0936654,31.21651783,118.1190732,31.22834093,118.1402811,31.2422064,118.1539903,31.2550039,118.1775209,31.26663287,118.1903638,31.2787817,118.2075955,31.29004449,118.2214063,31.29519255,118.2391346,31.29810503,118.2618687,31.30253943,118.2933615,31.30359142,118.3170427,31.30101271,118.333524,31.29989677,118.346321,31.30747501,118.3476144,31.30967164,118.3485119,31.32016922,118.3474366,31.33033094,118.3446308,31.34078079,118.3416982,31.35616422,118.3410414,31.36830881,118.3409185,31.37058175,118.341091,31.38279788,118.3410297,31.3895197]",
"END_LAT":31.3895197,
"END_LON":118.3485119,
"START_LAT":31.21651783,
"START_LON":118.0936654,
"BASETYPE":"1",
"DUIYINGDICENG":null,
"CREATE_TIME":"2017\/9\/20 14:45:10",
"CREATOR":null,
"REMARK":null,
"ATTRIBUTION_A":"计划维护水深,8",
"ATTRIBUTION_B":"计划维护宽度,300",
"ATTRIBUTION_C":"实际维护水深,8.4",
"ATTRIBUTION_D":"实际维护宽度,300",
"ATTRIBUTION_E":null,
"ATTRIBUTION_F":null,
"ATTRIBUTION_G":null,
"ATTRIBUTION_H":null,
"ATTRIBUTION_I":null,
"ATTRIBUTION_J":null,
"EDIT_TIME":"2018\/5\/2 13:30:34",
"EDITOR":"pmy",
"DESCRIBE":null,
"IMAGE":null,
"OUTINTERFACE":null,
"status":"1"
},
{
"ID":6053,
"NAME":"芜湖长江大桥至燕子矶",
"LEG":"长江下游",
"FEATURECLASS":"N01",
"SMALLCLASS":"N0101",
"REGION":"南京",
"GEOMORDINATESARRAY":"[118.3410297,31.3895197,118.345093,31.40391221,118.3468586,31.41294767,118.3462757,31.42512565,118.3389687,31.43710293,118.3354398,31.44497767,118.336264,31.45830992,118.3372194,31.46544457,118.342939,31.48080364,118.3540709,31.49670302,118.3543074,31.49704064,118.3687718,31.51527136,118.3718876,31.51967987,118.3819366,31.53389435,118.3929219,31.55720225,118.3963448,31.57265838,118.3977405,31.59482684,118.3995483,31.61507349,118.4006261,31.62788325,118.3988695,31.64845707,118.3974343,31.66411445,118.4019349,31.67989083,118.4101343,31.695855,118.4114226,31.69652989,118.4178044,31.69987255,118.4330708,31.70082853,118.4362013,31.70146927,118.4404424,31.70644334,118.4455497,31.71243235,118.4565222,31.72995509,118.4634733,31.7437933,118.4719661,31.75760972,118.4890504,31.77623938,118.497542,31.78351601,118.5009836,31.7865316,118.5077621,31.79256557,118.5152206,31.79968289,118.520216,31.80797501,118.5265348,31.81976573,118.5299192,31.82685101,118.5351746,31.84458576,118.5379591,31.86680417,118.5440527,31.88487079,118.5474335,31.8953558,118.5501976,31.90169241,118.5529621,31.90802896,118.5666038,31.92191512,118.5720692,31.92552468,118.5820028,31.93102708,118.5965031,31.93736439,118.6165692,31.94836638,118.6277136,31.95764555,118.6352303,31.96428441,118.6387387,31.96731083,118.6436651,31.97242478,118.646138,31.97498718,118.6530094,31.98097899,118.6588024,31.99017113,118.6655192,32.00436646,118.6683312,32.0107382,118.6756478,32.02571894,118.6854983,32.04560123,118.6955053,32.06517344,118.7076105,32.07935562,118.7218377,32.09388122,118.7322164,32.10504561,118.7446754,32.12008671,118.7615082,32.13216243,118.7882817,32.14021236,118.8100275,32.15328182]",
"END_LAT":32.15328182,
"END_LON":118.8100275,
"START_LAT":31.3895197,
"START_LON":118.3354398,
"BASETYPE":"1",
"DUIYINGDICENG":null,
"CREATE_TIME":"2017\/9\/20 14:45:11",
"CREATOR":null,
"REMARK":null,
"ATTRIBUTION_A":"计划维护水深,10.5",
"ATTRIBUTION_B":"计划维护宽度,220",
"ATTRIBUTION_C":"实际维护水深,10.5",
"ATTRIBUTION_D":"实际维护宽度,220",
"ATTRIBUTION_E":null,
"ATTRIBUTION_F":null,
"ATTRIBUTION_G":null,
"ATTRIBUTION_H":null,
"ATTRIBUTION_I":null,
"ATTRIBUTION_J":null,
"EDIT_TIME":"2018\/5\/2 13:30:34",
"EDITOR":"pmy",
"DESCRIBE":null,
"IMAGE":null,
"OUTINTERFACE":null,
"status":"1"
},
{
"ID":6054,
"NAME":"燕子矶至新生圩",
"LEG":"长江下游",
"FEATURECLASS":"N01",
"SMALLCLASS":"N0101",
"REGION":"南京",
"GEOMORDINATESARRAY":"[118.8100275,32.15328182,118.8254039,32.15901518,118.8316928,32.16073879,118.8390344,32.16401654,118.8431927,32.16595269]",
"END_LAT":32.16595269,
"END_LON":118.8431927,
"START_LAT":32.15328182,
"START_LON":118.8100275,
"BASETYPE":"1",
"DUIYINGDICENG":null,
"CREATE_TIME":"2018\/5\/2 00:00:00",
"CREATOR":null,
"REMARK":null,
"ATTRIBUTION_A":"计划维护水深,10.8",
"ATTRIBUTION_B":"计划维护宽度,200",
"ATTRIBUTION_C":"实际维护水深,10.8",
"ATTRIBUTION_D":"实际维护宽度,500",
"ATTRIBUTION_E":null,
"ATTRIBUTION_F":null,
"ATTRIBUTION_G":null,
"ATTRIBUTION_H":null,
"ATTRIBUTION_I":null,
"ATTRIBUTION_J":null,
"EDIT_TIME":"2018\/5\/2 13:30:34",
"EDITOR":"pmy",
"DESCRIBE":null,
"IMAGE":null,
"OUTINTERFACE":null,
"status":"1"
},
{
"ID":6055,
"NAME":"新生圩至鹅鼻嘴",
"LEG":"长江下游",
"FEATURECLASS":"N01",
"SMALLCLASS":"N0101",
"REGION":"南京",
"GEOMORDINATESARRAY":"[118.8431927,32.16595269,118.8523607,32.16999137,118.8692151,32.17893109,118.8700281,32.17901689,118.8943656,32.18158305,118.9012493,32.18120422,118.9117783,32.18004277,118.9236765,32.17827867,118.9338034,32.17615459,118.9420608,32.17465052,118.9486626,32.17385787,118.9762145,32.17380244,119.0028149,32.17586626,119.0186845,32.18288609,119.0381938,32.19573295,119.0565194,32.21328555,119.0742432,32.23624556,119.0873589,32.24368041,119.1005773,32.24625097,119.1306227,32.24822612,119.15902,32.2458646,119.1880571,32.23834422,119.2081289,32.23058384,119.2149714,32.22793729,119.2365222,32.21536032,119.2499432,32.20782381,119.2731698,32.19452771,119.2882318,32.19053903,119.3156471,32.19058443,119.3390599,32.19325736,119.3595792,32.20077538,119.3666456,32.20604165,119.3745142,32.21458555,119.3829678,32.224132,119.3977557,32.23975535,119.4151202,32.25468679,119.4342049,32.26398317,119.4619454,32.27018852,119.4856317,32.26987429,119.5038646,32.26390094,119.521136,32.25084484,119.5386096,32.2387973,119.5444792,32.23600144,119.5500433,32.22555695,119.5510233,32.21564324,119.5513111,32.20368378,119.5531308,32.19846001,119.5574179,32.19373063,119.5674147,32.19022925,119.5795485,32.1882769,119.5899856,32.18746736,119.6053601,32.18886217,119.6101976,32.19011473,119.6166296,32.19129755,119.6491728,32.2003382,119.6643181,32.21115853,119.67171,32.2207515,119.6749007,32.22523009,119.676429,32.22841799,119.6790112,32.23457831,119.6818153,32.24164733,119.6850731,32.24906381,119.689677,32.25773175,119.6942819,32.26639951,119.7049673,32.28607066,119.711088,32.29523027,119.7219754,32.31050943,119.7398444,32.32028976,119.7523205,32.32563432,119.7654509,32.32853669,119.7868049,32.32384704,119.8086721,32.31705623,119.8324094,32.30132941,119.8528295,32.2791091,119.8639172,32.2662941,119.874251,32.25295393,119.8792775,32.24128023,119.8844221,32.22466419,119.8888532,32.20165912,119.892444,32.1841289,119.8971984,32.15768202,119.9070179,32.1295897,119.9182876,32.09190767,119.9289031,32.06507083,119.9382768,32.0456313,119.9386501,32.04485705,119.9495629,32.02854739,119.9622951,32.01324275,119.9813882,31.9987185,119.9967653,31.9852435,120.0196312,31.97189706,120.0454567,31.96324587,120.0625582,31.95861548,120.0843989,31.95247218,120.1069697,31.94623656,120.1284083,31.94070088,120.1508748,31.93610495,120.1784402,31.93227111,120.2087573,31.93020027,120.2295097,31.93167754,120.2499909,31.93787045,120.2788949,31.94956171]",
"END_LAT":32.32853669,
"END_LON":120.2788949,
"START_LAT":31.93020027,
"START_LON":118.8431927,
"BASETYPE":"1",
"DUIYINGDICENG":null,
"CREATE_TIME":"2017\/9\/20 14:45:11",
"CREATOR":null,
"REMARK":null,
"ATTRIBUTION_A":"计划维护水深,10.8",
"ATTRIBUTION_B":"计划维护宽度,200",
"ATTRIBUTION_C":"实际维护水深,10.8",
"ATTRIBUTION_D":"实际维护宽度,500",
"ATTRIBUTION_E":null,
"ATTRIBUTION_F":null,
"ATTRIBUTION_G":null,
"ATTRIBUTION_H":null,
"ATTRIBUTION_I":null,
"ATTRIBUTION_J":null,
"EDIT_TIME":"2018\/5\/2 13:30:34",
"EDITOR":"pmy",
"DESCRIBE":null,
"IMAGE":null,
"OUTINTERFACE":null,
"status":"1"
},
{
"ID":6056,
"NAME":"鹅鼻嘴至天生港",
"LEG":"长江下游",
"FEATURECLASS":"N01",
"SMALLCLASS":"N0101",
"REGION":"南京",
"GEOMORDINATESARRAY":"[120.2788949,31.94956171,120.2954294,31.95557847,120.3119661,31.96159306,120.3327724,31.97535599,120.3464029,31.9853606,120.3693901,31.99720487,120.3852779,32.00735115,120.3997117,32.01602111,120.4121,32.02143937,120.4239141,32.02512626,120.4415919,32.02990976,120.4595292,32.03421826,120.4760292,32.03541357,120.503268,32.03295877,120.5373703,32.020441,120.5604132,32.01225882,120.5859837,32.0036153,120.6128402,31.99731621,120.6269301,31.9962823,120.6339168,31.99576903,120.65415,31.99708731,120.6720458,31.99958626,120.6832839,32.00064434,120.6969087,32.00254052,120.7094652,32.00412369,120.7199372,32.00543924,120.7324982,32.00704618,120.7460568,32.00902937,120.7637319,32.0117094,120.786322,32.01109993]",
"END_LAT":32.03541357,
"END_LON":120.786322,
"START_LAT":31.94956171,
"START_LON":120.2788949,
"BASETYPE":"1",
"DUIYINGDICENG":null,
"CREATE_TIME":"2017\/9\/20 14:45:11",
"CREATOR":null,
"REMARK":null,
"ATTRIBUTION_A":"计划维护水深,10.5",
"ATTRIBUTION_B":"计划维护宽度,200",
"ATTRIBUTION_C":"实际维护水深,10.5",
"ATTRIBUTION_D":"实际维护宽度,200",
"ATTRIBUTION_E":null,
"ATTRIBUTION_F":null,
"ATTRIBUTION_G":null,
"ATTRIBUTION_H":null,
"ATTRIBUTION_I":null,
"ATTRIBUTION_J":null,
"EDIT_TIME":"2018\/5\/2 13:30:34",
"EDITOR":"pmy",
"DESCRIBE":null,
"IMAGE":null,
"OUTINTERFACE":null,
"status":"1"
},
{
"ID":6057,
"NAME":"天生港至浏河口",
"LEG":"长江下游",
"FEATURECLASS":"N01",
"SMALLCLASS":"N0101",
"REGION":"南京",
"GEOMORDINATESARRAY":"[120.786322,32.01109993,120.8060967,32.00525543,120.8242919,31.99380114,120.8390253,31.98157543,120.8550465,31.96381319,120.8617708,31.94893697,120.8704971,31.93076555,120.8808481,31.90823893,120.8869732,31.88665293,120.8920091,31.86445105,120.8978658,31.84476891,120.9047123,31.83003749,120.9153497,31.81418167,120.9265531,31.79759786,120.9360434,31.78717602,120.9540129,31.77998903,120.9731377,31.77891681,120.9897275,31.77833232,121.0004035,31.77721268,121.0142753,31.77505291,121.0281545,31.77243045,121.0514021,31.76760291,121.0761321,31.75593601,121.10119,31.74045955,121.1164703,31.72539929,121.1347123,31.70782932,121.1461588,31.69941535,121.1638569,31.69064448,121.1847766,31.67904632,121.2022867,31.66639549,121.2197216,31.65392872,121.2408241,31.63912195,121.2596379,31.62452382,121.2772958,31.60838293,121.2903814,31.59516988,121.2969342,31.58855126,121.3117304,31.56794245,121.3280497,31.55063293]",
"END_LAT":32.01109993,
"END_LON":121.3280497,
"START_LAT":31.55063293,
"START_LON":120.786322,
"BASETYPE":"1",
"DUIYINGDICENG":null,
"CREATE_TIME":"2017\/9\/20 14:45:12",
"CREATOR":null,
"REMARK":null,
"ATTRIBUTION_A":"计划维护水深,12.5",
"ATTRIBUTION_B":"计划维护宽度,500",
"ATTRIBUTION_C":"实际维护水深,12.5",
"ATTRIBUTION_D":"实际维护宽度,500",
"ATTRIBUTION_E":null,
"ATTRIBUTION_F":null,
"ATTRIBUTION_G":null,
"ATTRIBUTION_H":null,
"ATTRIBUTION_I":null,
"ATTRIBUTION_J":null,
"EDIT_TIME":"2018\/5\/2 13:30:34",
"EDITOR":"pmy",
"DESCRIBE":null,
"IMAGE":null,
"OUTINTERFACE":null,
"status":"1"
},
{
"ID":7094,
"NAME":"武穴水道",
"LEG":"上巢湖至吉阳矶",
"FEATURECLASS":"N02",
"SMALLCLASS":"N0201",
"REGION":"南京",
"GEOMORDINATESARRAY":"[115.49931,29.84021813,115.5157912,29.8380767,115.5299352,29.83722534,115.5586062,29.83667022,115.5784678,29.83772718,115.6093646,29.83931912,115.6262534,29.84016907,115.6677545,29.84859032]",
"END_LAT":29.84859032,
"END_LON":115.6677545,
"START_LAT":29.83667022,
"START_LON":115.49931,
"BASETYPE":"1",
"DUIYINGDICENG":null,
"CREATE_TIME":"2017\/7\/6 14:24:11",
"CREATOR":null,
"REMARK":null,
"ATTRIBUTION_A":"计划维护水深,6",
"ATTRIBUTION_B":"计划维护宽度,220",
"ATTRIBUTION_C":"实际维护水深,6.8",
"ATTRIBUTION_D":"实际维护宽度,230",
"ATTRIBUTION_E":null,
"ATTRIBUTION_F":null,
"ATTRIBUTION_G":null,
"ATTRIBUTION_H":null,
"ATTRIBUTION_I":null,
"ATTRIBUTION_J":null,
"EDIT_TIME":"2017\/7\/6 14:24:11",
"EDITOR":null,
"DESCRIBE":null,
"IMAGE":null,
"OUTINTERFACE":null,
"status":"1"
},
{
"ID":7095,
"NAME":"九江水道",
"LEG":"上巢湖至吉阳矶",
"FEATURECLASS":"N02",
"SMALLCLASS":"N0201",
"REGION":"南京",
"GEOMORDINATESARRAY":"[115.7789285,29.79092468,115.7908222,29.78471235,115.8048406,29.77471475,115.8175724,29.7624119,115.8275253,29.75379345,115.8501356,29.74348837,115.8756399,29.73328515,115.9015987,29.72510688,115.9138498,29.72217882,115.9325315,29.72070082,115.948347,29.72183752,115.9754557,29.73232577]",
"END_LAT":29.79092468,
"END_LON":115.9754557,
"START_LAT":29.72070082,
"START_LON":115.7789285,
"BASETYPE":"1",
"DUIYINGDICENG":null,
"CREATE_TIME":"2017\/7\/6 14:24:11",
"CREATOR":null,
"REMARK":null,
"ATTRIBUTION_A":"计划维护水深,6",
"ATTRIBUTION_B":"计划维护宽度,220",
"ATTRIBUTION_C":"实际维护水深,6.8",
"ATTRIBUTION_D":"实际维护宽度,230",
"ATTRIBUTION_E":null,
"ATTRIBUTION_F":null,
"ATTRIBUTION_G":null,
"ATTRIBUTION_H":null,
"ATTRIBUTION_I":null,
"ATTRIBUTION_J":null,
"EDIT_TIME":"2017\/7\/6 14:24:11",
"EDITOR":null,
"DESCRIBE":null,
"IMAGE":null,
"OUTINTERFACE":null,
"status":"1"
},
{
"ID":7096,
"NAME":"马当南水道 ",
"LEG":"上巢湖至吉阳矶",
"FEATURECLASS":"N02",
"SMALLCLASS":"N0201",
"REGION":"南京",
"GEOMORDINATESARRAY":"[116.5545065,29.933656,116.5591906,29.94616368,116.5769951,29.95987041,116.6004579,29.96444534,116.6163945,29.96968193,116.6341971,29.97987218,116.6475823,29.99114011,116.6496466,30.00069478]",
"END_LAT":30.00069478,
"END_LON":116.6496466,
"START_LAT":29.933656,
"START_LON":116.5545065,
"BASETYPE":"1",
"DUIYINGDICENG":null,
"CREATE_TIME":"2017\/7\/6 14:24:11",
"CREATOR":null,
"REMARK":null,
"ATTRIBUTION_A":"计划维护水深,6",
"ATTRIBUTION_B":"计划维护宽度,220",
"ATTRIBUTION_C":"实际维护水深,6.8",
"ATTRIBUTION_D":"实际维护宽度,230",
"ATTRIBUTION_E":null,
"ATTRIBUTION_F":null,
"ATTRIBUTION_G":null,
"ATTRIBUTION_H":null,
"ATTRIBUTION_I":null,
"ATTRIBUTION_J":null,
"EDIT_TIME":"2017\/7\/6 14:24:11",
"EDITOR":null,
"DESCRIBE":null,
"IMAGE":null,
"OUTINTERFACE":null,
"status":"1"
},
{
"ID":7097,
"NAME":"东流水道",
"LEG":"上巢湖至吉阳矶",
"FEATURECLASS":"N02",
"SMALLCLASS":"N0201",
"REGION":"南京",
"GEOMORDINATESARRAY":"[116.7749465,30.08256878,116.7938494,30.09957378,116.8098227,30.1117014,116.8194142,30.12236427,116.8315071,30.13530285,116.8422503,30.1497241,116.8520491,30.16429753,116.8616756,30.17743751,116.8667967,30.18215442,116.8796922,30.19038791,116.8839217,30.19179429,116.8969832,30.20931457,116.9041202,30.22470777,116.9052827,30.23257298,116.9154279,30.25441608,116.9257583,30.27281329,116.9310114,30.29260269,116.9259817,30.30352453,116.913355,30.32139411]",
"END_LAT":30.32139411,
"END_LON":116.9310114,
"START_LAT":30.08256878,
"START_LON":116.7749465,
"BASETYPE":"1",
"DUIYINGDICENG":null,
"CREATE_TIME":"2017\/7\/6 14:24:11",
"CREATOR":null,
"REMARK":null,
"ATTRIBUTION_A":"计划维护水深,6",
"ATTRIBUTION_B":"计划维护宽度,220",
"ATTRIBUTION_C":"实际维护水深,7.1",
"ATTRIBUTION_D":"实际维护宽度,230",
"ATTRIBUTION_E":null,
"ATTRIBUTION_F":null,
"ATTRIBUTION_G":null,
"ATTRIBUTION_H":null,
"ATTRIBUTION_I":null,
"ATTRIBUTION_J":null,
"EDIT_TIME":"2017\/7\/6 14:24:11",
"EDITOR":null,
"DESCRIBE":null,
"IMAGE":null,
"OUTINTERFACE":null,
"status":"1"
},
{
"ID":7098,
"NAME":"安庆水道",
"LEG":"吉阳矶至高安圩",
"FEATURECLASS":"N02",
"SMALLCLASS":"N0201",
"REGION":"南京",
"GEOMORDINATESARRAY":"[117.0105329,30.49098462,117.0219404,30.49838927,117.0468992,30.49932309,117.0741011,30.4987526,117.1016826,30.50255487,117.1047005,30.5035196,117.1254157,30.51013924,117.1512004,30.52336171,117.164572,30.52880102,117.1733884,30.53030647,117.1905774,30.53372347,117.2012571,30.53500716,117.2249105,30.53601992,117.2359063,30.53899376]",
"END_LAT":30.53899376,
"END_LON":117.2359063,
"START_LAT":30.49098462,
"START_LON":117.0105329,
"BASETYPE":"1",
"DUIYINGDICENG":null,
"CREATE_TIME":"2017\/7\/6 14:24:11",
"CREATOR":null,
"REMARK":null,
"ATTRIBUTION_A":"计划维护水深,8",
"ATTRIBUTION_B":"计划维护宽度,220",
"ATTRIBUTION_C":"实际维护水深,8.3",
"ATTRIBUTION_D":"实际维护宽度,320",
"ATTRIBUTION_E":null,
"ATTRIBUTION_F":null,
"ATTRIBUTION_G":null,
"ATTRIBUTION_H":null,
"ATTRIBUTION_I":null,
"ATTRIBUTION_J":null,
"EDIT_TIME":"2017\/7\/6 14:24:11",
"EDITOR":null,
"DESCRIBE":null,
"IMAGE":null,
"OUTINTERFACE":null,
"status":"1"
},
{
"ID":7099,
"NAME":"太子矶水道",
"LEG":"吉阳矶至高安圩",
"FEATURECLASS":"N02",
"SMALLCLASS":"N0201",
"REGION":"南京",
"GEOMORDINATESARRAY":"[117.2359063,30.53899376,117.2413059,30.54474073,117.2427816,30.54631127,117.2482214,30.56835161,117.2497734,30.57837593,117.2488478,30.58518137,117.2432796,30.59673685,117.2276225,30.60446459,117.2256521,30.60661617,117.2294968,30.6133308,117.2307243,30.62133401,117.23245,30.628164,117.2389549,30.63658818,117.2443594,30.64169552,117.255286,30.64850868,117.2729674,30.65683313,117.2961435,30.66807186,117.3287337,30.68996612]",
"END_LAT":30.68996612,
"END_LON":117.3287337,
"START_LAT":30.53899376,
"START_LON":117.2256521,
"BASETYPE":"1",
"DUIYINGDICENG":null,
"CREATE_TIME":"2017\/7\/6 14:24:11",
"CREATOR":null,
"REMARK":null,
"ATTRIBUTION_A":"计划维护水深,8",
"ATTRIBUTION_B":"计划维护宽度,220",
"ATTRIBUTION_C":"实际维护水深,8.3",
"ATTRIBUTION_D":"实际维护宽度,260",
"ATTRIBUTION_E":null,
"ATTRIBUTION_F":null,
"ATTRIBUTION_G":null,
"ATTRIBUTION_H":null,
"ATTRIBUTION_I":null,
"ATTRIBUTION_J":null,
"EDIT_TIME":"2017\/7\/6 14:24:11",
"EDITOR":null,
"DESCRIBE":null,
"IMAGE":null,
"OUTINTERFACE":null,
"status":"1"
},
{
"ID":7100,
"NAME":"贵池水道",
"LEG":"吉阳矶至高安圩",
"FEATURECLASS":"N02",
"SMALLCLASS":"N0201",
"REGION":"南京",
"GEOMORDINATESARRAY":"[117.3287337,30.68996612,117.3575349,30.70145289,117.3748672,30.70734467,117.4012081,30.71945794,117.4119951,30.72461619,117.4371712,30.73041358,117.4560577,30.72537678,117.4740526,30.72110934,117.4835101,30.71940858,117.499239,30.72159532,117.5294818,30.73471835,117.5521557,30.74707597,117.5706401,30.75640006]",
"END_LAT":30.75640006,
"END_LON":117.5706401,
"START_LAT":30.68996612,
"START_LON":117.3287337,
"BASETYPE":"1",
"DUIYINGDICENG":null,
"CREATE_TIME":"2017\/7\/6 14:24:11",
"CREATOR":null,
"REMARK":null,
"ATTRIBUTION_A":"计划维护水深,8",
"ATTRIBUTION_B":"计划维护宽度,220",
"ATTRIBUTION_C":"实际维护水深,8.3",
"ATTRIBUTION_D":"实际维护宽度,280",
"ATTRIBUTION_E":null,
"ATTRIBUTION_F":null,
"ATTRIBUTION_G":null,
"ATTRIBUTION_H":null,
"ATTRIBUTION_I":null,
"ATTRIBUTION_J":null,
"EDIT_TIME":"2017\/7\/6 14:24:11",
"EDITOR":null,
"DESCRIBE":null,
"IMAGE":null,
"OUTINTERFACE":null,
"status":"1"
},
{
"ID":7101,
"NAME":"土桥水道",
"LEG":"吉阳矶至高安圩",
"FEATURECLASS":"N02",
"SMALLCLASS":"N0201",
"REGION":"南京",
"GEOMORDINATESARRAY":"[117.7332196,30.88798959,117.7349053,30.90302501,117.7356193,30.90939186,117.7313577,30.94070392,117.7278848,30.96377173,117.7243603,30.98762313,117.7233887,30.99486921,117.7253099,31.01519013,117.7333553,31.03808086,117.7427375,31.05591585,117.7461926,31.06358832,117.7533081,31.07938502]",
"END_LAT":31.07938502,
"END_LON":117.7533081,
"START_LAT":30.88798959,
"START_LON":117.7233887,
"BASETYPE":"1",
"DUIYINGDICENG":null,
"CREATE_TIME":"2017\/7\/6 14:24:11",
"CREATOR":null,
"REMARK":null,
"ATTRIBUTION_A":"计划维护水深,8",
"ATTRIBUTION_B":"计划维护宽度,220",
"ATTRIBUTION_C":"实际维护水深,8.1",
"ATTRIBUTION_D":"实际维护宽度,220",
"ATTRIBUTION_E":null,
"ATTRIBUTION_F":null,
"ATTRIBUTION_G":null,
"ATTRIBUTION_H":null,
"ATTRIBUTION_I":null,
"ATTRIBUTION_J":null,
"EDIT_TIME":"2017\/7\/6 14:24:11",
"EDITOR":null,
"DESCRIBE":null,
"IMAGE":null,
"OUTINTERFACE":null,
"status":"1"
},
{
"ID":7102,
"NAME":"黑沙洲南水道",
"LEG":"吉阳矶至高安圩",
"FEATURECLASS":"N02",
"SMALLCLASS":"N0201",
"REGION":"南京",
"GEOMORDINATESARRAY":"[117.9959604,31.13797566,117.9970674,31.15101993,118.0030382,31.16469528,118.0171967,31.17508537,118.0330302,31.18008502,118.0458196,31.1849379,118.0571223,31.19384285,118.0650415,31.20221756,118.0736388,31.20883528,118.0936654,31.21651783]",
"END_LAT":31.21651783,
"END_LON":118.0936654,
"START_LAT":31.13797566,
"START_LON":117.9959604,
"BASETYPE":"1",
"DUIYINGDICENG":null,
"CREATE_TIME":"2017\/7\/6 14:24:11",
"CREATOR":null,
"REMARK":null,
"ATTRIBUTION_A":"计划维护水深,8",
"ATTRIBUTION_B":"计划维护宽度,220",
"ATTRIBUTION_C":"实际维护水深,8.3",
"ATTRIBUTION_D":"实际维护宽度,260",
"ATTRIBUTION_E":null,
"ATTRIBUTION_F":null,
"ATTRIBUTION_G":null,
"ATTRIBUTION_H":null,
"ATTRIBUTION_I":null,
"ATTRIBUTION_J":null,
"EDIT_TIME":"2017\/7\/6 14:24:11",
"EDITOR":null,
"DESCRIBE":null,
"IMAGE":null,
"OUTINTERFACE":null,
"status":"1"
},
{
"ID":7103,
"NAME":"白茆水道",
"LEG":"高安圩至芜湖长江大桥",
"FEATURECLASS":"N02",
"SMALLCLASS":"N0201",
"REGION":"南京",
"GEOMORDINATESARRAY":"[118.0936654,31.21651783,118.1190732,31.22834093,118.1402811,31.2422064,118.1539903,31.2550039,118.1775209,31.26663287,118.1903638,31.2787817,118.2075955,31.29004449,118.2214063,31.29519255,118.2391346,31.29810503,118.2618687,31.30253943,118.2933615,31.30359142,118.3170427,31.30101271,118.333524,31.29989677,118.346321,31.30747501]",
"END_LAT":31.30747501,
"END_LON":118.346321,
"START_LAT":31.21651783,
"START_LON":118.0936654,
"BASETYPE":"1",
"DUIYINGDICENG":null,
"CREATE_TIME":"2017\/7\/6 14:24:11",
"CREATOR":null,
"REMARK":null,
"ATTRIBUTION_A":"计划维护水深,8",
"ATTRIBUTION_B":"计划维护宽度,300",
"ATTRIBUTION_C":"实际维护水深,8.4",
"ATTRIBUTION_D":"实际维护宽度,300",
"ATTRIBUTION_E":null,
"ATTRIBUTION_F":null,
"ATTRIBUTION_G":null,
"ATTRIBUTION_H":null,
"ATTRIBUTION_I":null,
"ATTRIBUTION_J":null,
"EDIT_TIME":"2017\/7\/6 14:24:11",
"EDITOR":null,
"DESCRIBE":null,
"IMAGE":null,
"OUTINTERFACE":null,
"status":"1"
},
{
"ID":7104,
"NAME":"江心洲水道",
"LEG":"芜湖大桥长江至燕子矶",
"FEATURECLASS":"N02",
"SMALLCLASS":"N0201",
"REGION":"南京",
"GEOMORDINATESARRAY":"[118.3543074,31.49704064,118.3687718,31.51527136,118.3718876,31.51967987,118.3819366,31.53389435,118.3929219,31.55720225,118.3963448,31.57265838,118.3977405,31.59482684,118.3995483,31.61507349,118.4006261,31.62788325,118.3988695,31.64845707,118.3974343,31.66411445,118.4019349,31.67989083,118.4101343,31.695855,118.4114226,31.69652989,118.4178044,31.69987255,118.4330708,31.70082853,118.4362013,31.70146927,118.4404424,31.70644334,118.4455497,31.71243235]",
"END_LAT":31.71243235,
"END_LON":118.4455497,
"START_LAT":31.49704064,
"START_LON":118.3543074,
"BASETYPE":"1",
"DUIYINGDICENG":null,
"CREATE_TIME":"2017\/7\/6 14:24:11",
"CREATOR":null,
"REMARK":null,
"ATTRIBUTION_A":"计划维护水深,10.5",
"ATTRIBUTION_B":"计划维护宽度,220",
"ATTRIBUTION_C":"实际维护水深,10.5",
"ATTRIBUTION_D":"实际维护宽度,220",
"ATTRIBUTION_E":null,
"ATTRIBUTION_F":null,
"ATTRIBUTION_G":null,
"ATTRIBUTION_H":null,
"ATTRIBUTION_I":null,
"ATTRIBUTION_J":null,
"EDIT_TIME":"2017\/7\/6 14:24:11",
"EDITOR":null,
"DESCRIBE":null,
"IMAGE":null,
"OUTINTERFACE":null,
"status":"1"
},
{
"ID":7105,
"NAME":"丹徒水道",
"LEG":"燕子矶至鹅鼻嘴",
"FEATURECLASS":"N02",
"SMALLCLASS":"N0201",
"REGION":"南京",
"GEOMORDINATESARRAY":"[119.5574179,32.19373063,119.5674147,32.19022925,119.5795485,32.1882769,119.5899856,32.18746736,119.6053601,32.18886217,119.6101976,32.19011473,119.6166296,32.19129755,119.6491728,32.2003382,119.6643181,32.21115853,119.67171,32.2207515,119.6749007,32.22523009,119.676429,32.22841799,119.6790112,32.23457831,119.6818153,32.24164733,119.6850731,32.24906381]",
"END_LAT":32.24906381,
"END_LON":119.6850731,
"START_LAT":32.18746736,
"START_LON":119.5574179,
"BASETYPE":"1",
"DUIYINGDICENG":null,
"CREATE_TIME":"2017\/7\/6 14:24:11",
"CREATOR":null,
"REMARK":null,
"ATTRIBUTION_A":"计划维护水深,10.8",
"ATTRIBUTION_B":"计划维护宽度,200",
"ATTRIBUTION_C":"实际维护水深,10.8",
"ATTRIBUTION_D":"实际维护宽度,200",
"ATTRIBUTION_E":null,
"ATTRIBUTION_F":null,
"ATTRIBUTION_G":null,
"ATTRIBUTION_H":null,
"ATTRIBUTION_I":null,
"ATTRIBUTION_J":null,
"EDIT_TIME":"2017\/7\/6 14:24:11",
"EDITOR":null,
"DESCRIBE":null,
"IMAGE":null,
"OUTINTERFACE":null,
"status":"1"
},
{
"ID":7106,
"NAME":"口岸直水道",
"LEG":"燕子矶至鹅鼻嘴",
"FEATURECLASS":"N02",
"SMALLCLASS":"N0201",
"REGION":"南京",
"GEOMORDINATESARRAY":"[119.6850731,32.24906381,119.689677,32.25773175,119.6942819,32.26639951,119.7049673,32.28607066,119.711088,32.29523027,119.7219754,32.31050943,119.7398444,32.32028976,119.7523205,32.32563432,119.7654509,32.32853669,119.7868049,32.32384704,119.8086721,32.31705623,119.8324094,32.30132941,119.8528295,32.2791091,119.8639172,32.2662941,119.874251,32.25295393,119.8792775,32.24128023,119.8844221,32.22466419,119.8888532,32.20165912,119.892444,32.1841289,119.8971984,32.15768202,119.9070179,32.1295897]",
"END_LAT":32.32853669,
"END_LON":119.9070179,
"START_LAT":32.1295897,
"START_LON":119.6850731,
"BASETYPE":"1",
"DUIYINGDICENG":null,
"CREATE_TIME":"2017\/7\/6 14:24:11",
"CREATOR":null,
"REMARK":null,
"ATTRIBUTION_A":"计划维护水深,10.8",
"ATTRIBUTION_B":"计划维护宽度,200",
"ATTRIBUTION_C":"实际维护水深,10.8",
"ATTRIBUTION_D":"实际维护宽度,500",
"ATTRIBUTION_E":null,
"ATTRIBUTION_F":null,
"ATTRIBUTION_G":null,
"ATTRIBUTION_H":null,
"ATTRIBUTION_I":null,
"ATTRIBUTION_J":null,
"EDIT_TIME":"2017\/7\/6 14:24:11",
"EDITOR":null,
"DESCRIBE":null,
"IMAGE":null,
"OUTINTERFACE":null,
"status":"1"
},
{
"ID":7107,
"NAME":"福姜沙南水道",
"LEG":"鹅鼻嘴至天生港",
"FEATURECLASS":"N02",
"SMALLCLASS":"N0201",
"REGION":"南京",
"GEOMORDINATESARRAY":"[120.2788949,31.94956171,120.2954294,31.95557847,120.3119661,31.96159306,120.3327724,31.97535599,120.3464029,31.9853606,120.3693901,31.99720487,120.3852779,32.00735115,120.3997117,32.01602111,120.4121,32.02143937,120.4239141,32.02512626,120.4415919,32.02990976,120.4595292,32.03421826,120.4760292,32.03541357,120.503268,32.03295877,120.5373703,32.020441]",
"END_LAT":32.03541357,
"END_LON":120.5373703,
"START_LAT":31.94956171,
"START_LON":120.2788949,
"BASETYPE":"1",
"DUIYINGDICENG":null,
"CREATE_TIME":"2017\/7\/6 14:24:12",
"CREATOR":null,
"REMARK":null,
"ATTRIBUTION_A":"计划维护水深,10.5",
"ATTRIBUTION_B":"计划维护宽度,200",
"ATTRIBUTION_C":"实际维护水深,10.5",
"ATTRIBUTION_D":"实际维护宽度,200",
"ATTRIBUTION_E":null,
"ATTRIBUTION_F":null,
"ATTRIBUTION_G":null,
"ATTRIBUTION_H":null,
"ATTRIBUTION_I":null,
"ATTRIBUTION_J":null,
"EDIT_TIME":"2017\/7\/6 14:24:12",
"EDITOR":null,
"DESCRIBE":null,
"IMAGE":null,
"OUTINTERFACE":null,
"status":"1"
},
{
"ID":7108,
"NAME":"浏河水道",
"LEG":"天生港至浏河口",
"FEATURECLASS":"N02",
"SMALLCLASS":"N0201",
"REGION":"南京",
"GEOMORDINATESARRAY":"[121.2596379,31.62452382,121.2772958,31.60838293,121.2903814,31.59516988,121.2969342,31.58855126,121.3117304,31.56794245,121.3280497,31.55063293]",
"END_LAT":31.62452382,
"END_LON":121.3280497,
"START_LAT":31.55063293,
"START_LON":121.2596379,
"BASETYPE":"1",
"DUIYINGDICENG":null,
"CREATE_TIME":"2017\/7\/6 14:24:12",
"CREATOR":null,
"REMARK":null,
"ATTRIBUTION_A":"计划维护水深,12.5",
"ATTRIBUTION_B":"计划维护宽度,500",
"ATTRIBUTION_C":"实际维护水深,12.5",
"ATTRIBUTION_D":"实际维护宽度,500",
"ATTRIBUTION_E":null,
"ATTRIBUTION_F":null,
"ATTRIBUTION_G":null,
"ATTRIBUTION_H":null,
"ATTRIBUTION_I":null,
"ATTRIBUTION_J":null,
"EDIT_TIME":"2017\/7\/6 14:24:12",
"EDITOR":null,
"DESCRIBE":null,
"IMAGE":null,
"OUTINTERFACE":null,
"status":"1"
},
{
"ID":10050,
"NAME":"设置FB#14-1黑浮",
"LEG":null,
"FEATURECLASS":"N03",
"SMALLCLASS":"N0301",
"REGION":"南京",
"GEOMORDINATESARRAY":"[120.12309,31.955078]",
"END_LAT":31.955078,
"END_LON":120.12309,
"START_LAT":31.955078,
"START_LON":120.12309,
"BASETYPE":"0",
"DUIYINGDICENG":null,
"CREATE_TIME":"2017\/9\/13 22:03:05",
"CREATOR":"pmy",
"REMARK":null,
"ATTRIBUTION_A":null,
"ATTRIBUTION_B":null,
"ATTRIBUTION_C":null,
"ATTRIBUTION_D":null,
"ATTRIBUTION_E":null,
"ATTRIBUTION_F":null,
"ATTRIBUTION_G":null,
"ATTRIBUTION_H":null,
"ATTRIBUTION_I":null,
"ATTRIBUTION_J":null,
"EDIT_TIME":"2017\/9\/13 22:03:05",
"EDITOR":"pmy",
"DESCRIBE":null,
"IMAGE":null,
"OUTINTERFACE":null,
"status":"0"
},
{
"ID":10100,
"NAME":"test",
"LEG":null,
"FEATURECLASS":"N03",
"SMALLCLASS":"N0301",
"REGION":"南京",
"GEOMORDINATESARRAY":"[120.0196,32.15092,119.82047,32.07066]",
"END_LAT":32.15092,
"END_LON":120.0196,
"START_LAT":32.07066,
"START_LON":119.82047,
"BASETYPE":"1",
"DUIYINGDICENG":null,
"CREATE_TIME":"2017\/9\/14 10:28:40",
"CREATOR":"pmy",
"REMARK":null,
"ATTRIBUTION_A":null,
"ATTRIBUTION_B":null,
"ATTRIBUTION_C":null,
"ATTRIBUTION_D":null,
"ATTRIBUTION_E":null,
"ATTRIBUTION_F":null,
"ATTRIBUTION_G":null,
"ATTRIBUTION_H":null,
"ATTRIBUTION_I":null,
"ATTRIBUTION_J":null,
"EDIT_TIME":"2017\/9\/14 10:28:40",
"EDITOR":"pmy",
"DESCRIBE":null,
"IMAGE":null,
"OUTINTERFACE":null,
"status":"0"
},
{
"ID":10101,
"NAME":"test2",
"LEG":null,
"FEATURECLASS":"N03",
"SMALLCLASS":"N0301",
"REGION":"南京",
"GEOMORDINATESARRAY":"[120.27984,32.066223,120.30868,31.81567,120.65475,31.926462,120.483086,32.124393,120.27572,32.09415,120.27984,32.066223]",
"END_LAT":32.124393,
"END_LON":120.65475,
"START_LAT":31.81567,
"START_LON":120.27572,
"BASETYPE":"2",
"DUIYINGDICENG":null,
"CREATE_TIME":"2017\/9\/14 11:35:49",
"CREATOR":"pmy",
"REMARK":null,
"ATTRIBUTION_A":null,
"ATTRIBUTION_B":null,
"ATTRIBUTION_C":null,
"ATTRIBUTION_D":null,
"ATTRIBUTION_E":null,
"ATTRIBUTION_F":null,
"ATTRIBUTION_G":null,
"ATTRIBUTION_H":null,
"ATTRIBUTION_I":null,
"ATTRIBUTION_J":null,
"EDIT_TIME":"2017\/9\/14 11:35:49",
"EDITOR":"pmy",
"DESCRIBE":null,
"IMAGE":null,
"OUTINTERFACE":null,
"status":"0"
},
{
"ID":10150,
"NAME":"和燕路航道调整",
"LEG":null,
"FEATURECLASS":"N03",
"SMALLCLASS":"N0301",
"REGION":"南京",
"GEOMORDINATESARRAY":"[118.791504,32.146152,118.809265,32.156906,118.813,32.15106,118.79558,32.14052,118.791504,32.146152]",
"END_LAT":32.156906,
"END_LON":118.813,
"START_LAT":32.14052,
"START_LON":118.791504,
"BASETYPE":"2",
"DUIYINGDICENG":null,
"CREATE_TIME":"2017\/9\/14 16:27:55",
"CREATOR":"pmy",
"REMARK":null,
"ATTRIBUTION_A":null,
"ATTRIBUTION_B":null,
"ATTRIBUTION_C":null,
"ATTRIBUTION_D":null,
"ATTRIBUTION_E":null,
"ATTRIBUTION_F":null,
"ATTRIBUTION_G":null,
"ATTRIBUTION_H":null,
"ATTRIBUTION_I":null,
"ATTRIBUTION_J":null,
"EDIT_TIME":"2017\/9\/14 16:27:55",
"EDITOR":"pmy",
"DESCRIBE":null,
"IMAGE":null,
"OUTINTERFACE":null,
"status":"0"
},
{
"ID":10151,
"NAME":"和燕路航标配布调整",
"LEG":null,
"FEATURECLASS":"N03",
"SMALLCLASS":"N0301",
"REGION":"南京",
"GEOMORDINATESARRAY":"[118.7782,32.1449,118.78781,32.131382,118.82764,32.15304,118.81613,32.16641,118.7782,32.1449]",
"END_LAT":32.16641,
"END_LON":118.82764,
"START_LAT":32.131382,
"START_LON":118.7782,
"BASETYPE":"2",
"DUIYINGDICENG":null,
"CREATE_TIME":"2017\/9\/14 16:31:37",
"CREATOR":"pmy",
"REMARK":null,
"ATTRIBUTION_A":null,
"ATTRIBUTION_B":null,
"ATTRIBUTION_C":null,
"ATTRIBUTION_D":null,
"ATTRIBUTION_E":null,
"ATTRIBUTION_F":null,
"ATTRIBUTION_G":null,
"ATTRIBUTION_H":null,
"ATTRIBUTION_I":null,
"ATTRIBUTION_J":null,
"EDIT_TIME":"2017\/9\/14 18:16:47",
"EDITOR":"pmy",
"DESCRIBE":null,
"IMAGE":null,
"OUTINTERFACE":null,
"status":"1"
},
{
"ID":10152,
"NAME":"#140红浮失常",
"LEG":null,
"FEATURECLASS":"N03",
"SMALLCLASS":"N0301",
"REGION":"南京",
"GEOMORDINATESARRAY":"[118.79085,32.137623,118.79033,32.138153,118.78919,32.137917,118.78969,32.13708,118.79085,32.137623]",
"END_LAT":32.138153,
"END_LON":118.79085,
"START_LAT":32.13708,
"START_LON":118.78919,
"BASETYPE":"2",
"DUIYINGDICENG":null,
"CREATE_TIME":"2017\/9\/14 16:35:16",
"CREATOR":"pmy",
"REMARK":null,
"ATTRIBUTION_A":null,
"ATTRIBUTION_B":null,
"ATTRIBUTION_C":null,
"ATTRIBUTION_D":null,
"ATTRIBUTION_E":null,
"ATTRIBUTION_F":null,
"ATTRIBUTION_G":null,
"ATTRIBUTION_H":null,
"ATTRIBUTION_I":null,
"ATTRIBUTION_J":null,
"EDIT_TIME":"2017\/9\/14 18:17:05",
"EDITOR":"pmy",
"DESCRIBE":null,
"IMAGE":null,
"OUTINTERFACE":null,
"status":"1"
},
{
"ID":10153,
"NAME":"南京大桥禁止淌航",
"LEG":null,
"FEATURECLASS":"N03",
"SMALLCLASS":"N0301",
"REGION":"南京",
"GEOMORDINATESARRAY":"[118.71432,32.09561,118.72831,32.09005,118.74474,32.112606,118.77096,32.12695,118.754265,32.13814,118.736496,32.12295,118.71432,32.09561]",
"END_LAT":32.13814,
"END_LON":118.77096,
"START_LAT":32.09005,
"START_LON":118.71432,
"BASETYPE":"2",
"DUIYINGDICENG":null,
"CREATE_TIME":"2017\/9\/14 16:38:51",
"CREATOR":"pmy",
"REMARK":null,
"ATTRIBUTION_A":null,
"ATTRIBUTION_B":null,
"ATTRIBUTION_C":null,
"ATTRIBUTION_D":null,
"ATTRIBUTION_E":null,
"ATTRIBUTION_F":null,
"ATTRIBUTION_G":null,
"ATTRIBUTION_H":null,
"ATTRIBUTION_I":null,
"ATTRIBUTION_J":null,
"EDIT_TIME":"2018\/9\/27 08:59:03",
"EDITOR":"njc",
"DESCRIBE":null,
"IMAGE":null,
"OUTINTERFACE":null,
"status":"1"
},
{
"ID":10154,
"NAME":"纬三路隧道禁止抛锚",
"LEG":null,
"FEATURECLASS":"N03",
"SMALLCLASS":"N0301",
"REGION":"南京",
"GEOMORDINATESARRAY":"[118.70848,32.086365,118.70243,32.080605,118.7247,32.06491,118.72659,32.07953,118.70848,32.086365]",
"END_LAT":32.086365,
"END_LON":118.72659,
"START_LAT":32.06491,
"START_LON":118.70243,
"BASETYPE":"2",
"DUIYINGDICENG":null,
"CREATE_TIME":"2017\/9\/14 16:48:36",
"CREATOR":"pmy",
"REMARK":null,
"ATTRIBUTION_A":null,
"ATTRIBUTION_B":null,
"ATTRIBUTION_C":null,
"ATTRIBUTION_D":null,
"ATTRIBUTION_E":null,
"ATTRIBUTION_F":null,
"ATTRIBUTION_G":null,
"ATTRIBUTION_H":null,
"ATTRIBUTION_I":null,
"ATTRIBUTION_J":null,
"EDIT_TIME":"2018\/9\/27 08:55:27",
"EDITOR":"njc",
"DESCRIBE":null,
"IMAGE":null,
"OUTINTERFACE":null,
"status":"1"
},
{
"ID":10155,
"NAME":"南京大桥通航信息",
"LEG":null,
"FEATURECLASS":"N03",
"SMALLCLASS":"N0301",
"REGION":"南京",
"GEOMORDINATESARRAY":"[118.73098,32.119347,118.7464,32.11165]",
"END_LAT":32.119347,
"END_LON":118.7464,
"START_LAT":32.11165,
"START_LON":118.73098,
"BASETYPE":"1",
"DUIYINGDICENG":null,
"CREATE_TIME":"2017\/9\/19 12:30:26",
"CREATOR":"pmy",
"REMARK":null,
"ATTRIBUTION_A":null,
"ATTRIBUTION_B":null,
"ATTRIBUTION_C":null,
"ATTRIBUTION_D":null,
"ATTRIBUTION_E":null,
"ATTRIBUTION_F":null,
"ATTRIBUTION_G":null,
"ATTRIBUTION_H":null,
"ATTRIBUTION_I":null,
"ATTRIBUTION_J":null,
"EDIT_TIME":"2017\/9\/19 12:30:26",
"EDITOR":"pmy",
"DESCRIBE":null,
"IMAGE":null,
"OUTINTERFACE":null,
"status":"0"
},
{
"ID":10200,
"NAME":"测试通过",
"LEG":null,
"FEATURECLASS":"N03",
"SMALLCLASS":"N0301",
"REGION":"南京",
"GEOMORDINATESARRAY":"[118.8808,32.1773]",
"END_LAT":32.1773,
"END_LON":118.8808,
"START_LAT":32.1773,
"START_LON":118.8808,
"BASETYPE":"0",
"DUIYINGDICENG":null,
"CREATE_TIME":"2017\/9\/26 11:11:39",
"CREATOR":"pmy",
"REMARK":null,
"ATTRIBUTION_A":null,
"ATTRIBUTION_B":null,
"ATTRIBUTION_C":null,
"ATTRIBUTION_D":null,
"ATTRIBUTION_E":null,
"ATTRIBUTION_F":null,
"ATTRIBUTION_G":null,
"ATTRIBUTION_H":null,
"ATTRIBUTION_I":null,
"ATTRIBUTION_J":null,
"EDIT_TIME":"2017\/9\/26 11:11:39",
"EDITOR":"pmy",
"DESCRIBE":null,
"IMAGE":null,
"OUTINTERFACE":null,
"status":"0"
},
{
"ID":10250,
"NAME":"1天过期测试",
"LEG":null,
"FEATURECLASS":"N03",
"SMALLCLASS":"N0301",
"REGION":"南京",
"GEOMORDINATESARRAY":"[118.6943,32.0316]",
"END_LAT":32.0316,
"END_LON":118.6943,
"START_LAT":32.0316,
"START_LON":118.6943,
"BASETYPE":"0",
"DUIYINGDICENG":null,
"CREATE_TIME":"2017\/9\/27 16:08:12",
"CREATOR":"pmy",
"REMARK":null,
"ATTRIBUTION_A":null,
"ATTRIBUTION_B":null,
"ATTRIBUTION_C":null,
"ATTRIBUTION_D":null,
"ATTRIBUTION_E":null,
"ATTRIBUTION_F":null,
"ATTRIBUTION_G":null,
"ATTRIBUTION_H":null,
"ATTRIBUTION_I":null,
"ATTRIBUTION_J":null,
"EDIT_TIME":"2017\/9\/27 16:08:12",
"EDITOR":"pmy",
"DESCRIBE":null,
"IMAGE":null,
"OUTINTERFACE":null,
"status":"0"
},
{
"ID":10300,
"NAME":"关于长江下游水情变化情况的通告",
"LEG":null,
"FEATURECLASS":"N03",
"SMALLCLASS":"N0301",
"REGION":"南京",
"GEOMORDINATESARRAY":"[32.3173,119.7283]",
"END_LAT":119.7283,
"END_LON":32.3173,
"START_LAT":119.7283,
"START_LON":32.3173,
"BASETYPE":"0",
"DUIYINGDICENG":null,
"CREATE_TIME":"2017\/11\/20 14:33:13",
"CREATOR":"pmy",
"REMARK":null,
"ATTRIBUTION_A":null,
"ATTRIBUTION_B":null,
"ATTRIBUTION_C":null,
"ATTRIBUTION_D":null,
"ATTRIBUTION_E":null,
"ATTRIBUTION_F":null,
"ATTRIBUTION_G":null,
"ATTRIBUTION_H":null,
"ATTRIBUTION_I":null,
"ATTRIBUTION_J":null,
"EDIT_TIME":"2017\/11\/20 14:33:13",
"EDITOR":"pmy",
"DESCRIBE":null,
"IMAGE":null,
"OUTINTERFACE":null,
"status":"2"
},
{
"ID":10350,
"NAME":"嘶马段丁坝提示",
"LEG":null,
"FEATURECLASS":"N03",
"SMALLCLASS":"N0301",
"REGION":"南京",
"GEOMORDINATESARRAY":"[119.743484,32.32556,119.742325,32.327087,119.74906,32.32988,119.75821,32.33209,119.773056,32.330276,119.78516,32.329216,119.79447,32.326767,119.793015,32.324738,119.78679,32.32637,119.7602,32.331158,119.750114,32.328037,119.743484,32.32556]",
"END_LAT":32.33209,
"END_LON":119.79447,
"START_LAT":32.324738,
"START_LON":119.742325,
"BASETYPE":"2",
"DUIYINGDICENG":null,
"CREATE_TIME":"2017\/11\/24 09:48:29",
"CREATOR":"pmy",
"REMARK":null,
"ATTRIBUTION_A":null,
"ATTRIBUTION_B":null,
"ATTRIBUTION_C":null,
"ATTRIBUTION_D":null,
"ATTRIBUTION_E":null,
"ATTRIBUTION_F":null,
"ATTRIBUTION_G":null,
"ATTRIBUTION_H":null,
"ATTRIBUTION_I":null,
"ATTRIBUTION_J":null,
"EDIT_TIME":"2017\/11\/24 09:48:29",
"EDITOR":"pmy",
"DESCRIBE":null,
"IMAGE":null,
"OUTINTERFACE":null,
"status":"1"
},
{
"ID":10351,
"NAME":"口岸直水道受现有深水航道水深限制的船舶，引用AIS虚拟航标靠右航行",
"LEG":null,
"FEATURECLASS":"N03",
"SMALLCLASS":"N0301",
"REGION":"南京",
"GEOMORDINATESARRAY":"[119.72003,32.31231,119.7112,32.29769,119.70497,32.287605,119.70238,32.283405,119.6935,32.2705,119.69172,32.26777]",
"END_LAT":32.31231,
"END_LON":119.72003,
"START_LAT":32.26777,
"START_LON":119.69172,
"BASETYPE":"1",
"DUIYINGDICENG":null,
"CREATE_TIME":"2017\/11\/24 11:36:23",
"CREATOR":"pmy",
"REMARK":null,
"ATTRIBUTION_A":null,
"ATTRIBUTION_B":null,
"ATTRIBUTION_C":null,
"ATTRIBUTION_D":null,
"ATTRIBUTION_E":null,
"ATTRIBUTION_F":null,
"ATTRIBUTION_G":null,
"ATTRIBUTION_H":null,
"ATTRIBUTION_I":null,
"ATTRIBUTION_J":null,
"EDIT_TIME":"2017\/11\/24 11:36:23",
"EDITOR":"pmy",
"DESCRIBE":null,
"IMAGE":null,
"OUTINTERFACE":null,
"status":"1"
},
{
"ID":10352,
"NAME":"受现有深水航道水深限制的船舶在口岸直水道引用AIS虚拟航标的提示",
"LEG":null,
"FEATURECLASS":"N03",
"SMALLCLASS":"N0301",
"REGION":"南京",
"GEOMORDINATESARRAY":"[119.72411,32.31475,119.71167,32.29736,119.7022,32.28414,119.69089,32.26656]",
"END_LAT":32.31475,
"END_LON":119.72411,
"START_LAT":32.26656,
"START_LON":119.69089,
"BASETYPE":"1",
"DUIYINGDICENG":null,
"CREATE_TIME":"2017\/11\/24 11:46:22",
"CREATOR":"pmy",
"REMARK":null,
"ATTRIBUTION_A":null,
"ATTRIBUTION_B":null,
"ATTRIBUTION_C":null,
"ATTRIBUTION_D":null,
"ATTRIBUTION_E":null,
"ATTRIBUTION_F":null,
"ATTRIBUTION_G":null,
"ATTRIBUTION_H":null,
"ATTRIBUTION_I":null,
"ATTRIBUTION_J":null,
"EDIT_TIME":"2017\/11\/24 11:46:22",
"EDITOR":"pmy",
"DESCRIBE":null,
"IMAGE":null,
"OUTINTERFACE":null,
"status":"1"
},
{
"ID":10353,
"NAME":"长江下游多处浅险水道临近计划维护水深",
"LEG":null,
"FEATURECLASS":"N03",
"SMALLCLASS":"N0301",
"REGION":"南京",
"GEOMORDINATESARRAY":"[119.7283,32.3173]",
"END_LAT":32.3173,
"END_LON":119.7283,
"START_LAT":32.3173,
"START_LON":119.7283,
"BASETYPE":"0",
"DUIYINGDICENG":null,
"CREATE_TIME":"2017\/12\/25 12:10:20",
"CREATOR":"pmy",
"REMARK":null,
"ATTRIBUTION_A":null,
"ATTRIBUTION_B":null,
"ATTRIBUTION_C":null,
"ATTRIBUTION_D":null,
"ATTRIBUTION_E":null,
"ATTRIBUTION_F":null,
"ATTRIBUTION_G":null,
"ATTRIBUTION_H":null,
"ATTRIBUTION_I":null,
"ATTRIBUTION_J":null,
"EDIT_TIME":"2017\/12\/25 12:10:20",
"EDITOR":"pmy",
"DESCRIBE":null,
"IMAGE":null,
"OUTINTERFACE":null,
"status":"2"
},
{
"ID":10400,
"NAME":"船舶安全提示",
"LEG":null,
"FEATURECLASS":"N03",
"SMALLCLASS":"N0301",
"REGION":"南京",
"GEOMORDINATESARRAY":"[32.3173,119.7283]",
"END_LAT":119.7283,
"END_LON":32.3173,
"START_LAT":119.7283,
"START_LON":32.3173,
"BASETYPE":"0",
"DUIYINGDICENG":null,
"CREATE_TIME":"2017\/12\/1 16:58:53",
"CREATOR":"pmy",
"REMARK":null,
"ATTRIBUTION_A":null,
"ATTRIBUTION_B":null,
"ATTRIBUTION_C":null,
"ATTRIBUTION_D":null,
"ATTRIBUTION_E":null,
"ATTRIBUTION_F":null,
"ATTRIBUTION_G":null,
"ATTRIBUTION_H":null,
"ATTRIBUTION_I":null,
"ATTRIBUTION_J":null,
"EDIT_TIME":"2017\/12\/1 16:58:53",
"EDITOR":"pmy",
"DESCRIBE":null,
"IMAGE":null,
"OUTINTERFACE":null,
"status":"2"
},
{
"ID":11300,
"NAME":"长江下游多处浅险水道临近计划维护尺度",
"LEG":null,
"FEATURECLASS":"N03",
"SMALLCLASS":"N0301",
"REGION":"南京",
"GEOMORDINATESARRAY":"[32.3173,119.7283]",
"END_LAT":119.7283,
"END_LON":32.3173,
"START_LAT":119.7283,
"START_LON":32.3173,
"BASETYPE":"0",
"DUIYINGDICENG":null,
"CREATE_TIME":"2017\/12\/25 12:12:09",
"CREATOR":"pmy",
"REMARK":null,
"ATTRIBUTION_A":null,
"ATTRIBUTION_B":null,
"ATTRIBUTION_C":null,
"ATTRIBUTION_D":null,
"ATTRIBUTION_E":null,
"ATTRIBUTION_F":null,
"ATTRIBUTION_G":null,
"ATTRIBUTION_H":null,
"ATTRIBUTION_I":null,
"ATTRIBUTION_J":null,
"EDIT_TIME":"2017\/12\/25 12:12:09",
"EDITOR":"pmy",
"DESCRIBE":"84",
"IMAGE":null,
"OUTINTERFACE":null,
"status":"2"
},
{
"ID":12300,
"NAME":"马当南水道马当南#7白浮暂不能恢复",
"LEG":null,
"FEATURECLASS":"N03",
"SMALLCLASS":"N0301",
"REGION":"南京",
"GEOMORDINATESARRAY":"[116.5518,29.9478]",
"END_LAT":29.9478,
"END_LON":116.5518,
"START_LAT":29.9478,
"START_LON":116.5518,
"BASETYPE":"0",
"DUIYINGDICENG":null,
"CREATE_TIME":"2018\/1\/25 15:14:11",
"CREATOR":"jjc",
"REMARK":null,
"ATTRIBUTION_A":null,
"ATTRIBUTION_B":null,
"ATTRIBUTION_C":null,
"ATTRIBUTION_D":null,
"ATTRIBUTION_E":null,
"ATTRIBUTION_F":null,
"ATTRIBUTION_G":null,
"ATTRIBUTION_H":null,
"ATTRIBUTION_I":null,
"ATTRIBUTION_J":null,
"EDIT_TIME":"2018\/1\/25 15:14:11",
"EDITOR":"jjc",
"DESCRIBE":"84",
"IMAGE":null,
"OUTINTERFACE":null,
"status":"1"
},
{
"ID":12301,
"NAME":"马当南水道马当南#7白浮",
"LEG":null,
"FEATURECLASS":"N03",
"SMALLCLASS":"N0301",
"REGION":"南京",
"GEOMORDINATESARRAY":"[116.5527,29.9443]",
"END_LAT":29.9443,
"END_LON":116.5527,
"START_LAT":29.9443,
"START_LON":116.5527,
"BASETYPE":"0",
"DUIYINGDICENG":null,
"CREATE_TIME":"2018\/1\/25 15:18:42",
"CREATOR":"jjc",
"REMARK":null,
"ATTRIBUTION_A":null,
"ATTRIBUTION_B":null,
"ATTRIBUTION_C":null,
"ATTRIBUTION_D":null,
"ATTRIBUTION_E":null,
"ATTRIBUTION_F":null,
"ATTRIBUTION_G":null,
"ATTRIBUTION_H":null,
"ATTRIBUTION_I":null,
"ATTRIBUTION_J":null,
"EDIT_TIME":"2018\/1\/25 15:18:42",
"EDITOR":"jjc",
"DESCRIBE":"84",
"IMAGE":null,
"OUTINTERFACE":null,
"status":"1"
},
{
"ID":12350,
"NAME":"11111",
"LEG":null,
"FEATURECLASS":"N03",
"SMALLCLASS":"N0301",
"REGION":"南京",
"GEOMORDINATESARRAY":"[119.70223,32.276424,119.713905,32.288177,119.70017,32.28586,119.69211,32.279182,119.69571,32.273666,119.70138,32.272213,119.70223,32.276424]",
"END_LAT":32.288177,
"END_LON":119.713905,
"START_LAT":32.272213,
"START_LON":119.69211,
"BASETYPE":"2",
"DUIYINGDICENG":null,
"CREATE_TIME":"2018\/1\/29 15:36:05",
"CREATOR":"zjc",
"REMARK":null,
"ATTRIBUTION_A":null,
"ATTRIBUTION_B":null,
"ATTRIBUTION_C":null,
"ATTRIBUTION_D":null,
"ATTRIBUTION_E":null,
"ATTRIBUTION_F":null,
"ATTRIBUTION_G":null,
"ATTRIBUTION_H":null,
"ATTRIBUTION_I":null,
"ATTRIBUTION_J":null,
"EDIT_TIME":"2018\/1\/29 15:36:05",
"EDITOR":"zjc",
"DESCRIBE":"84",
"IMAGE":null,
"OUTINTERFACE":null,
"status":"1"
},
{
"ID":12351,
"NAME":"#93-1红浮恢复正常",
"LEG":null,
"FEATURECLASS":"N03",
"SMALLCLASS":"N0301",
"REGION":"南京",
"GEOMORDINATESARRAY":"[119.7071,32.2851]",
"END_LAT":32.2851,
"END_LON":119.7071,
"START_LAT":32.2851,
"START_LON":119.7071,
"BASETYPE":"0",
"DUIYINGDICENG":null,
"CREATE_TIME":"2018\/2\/1 16:24:02",
"CREATOR":"zjc",
"REMARK":null,
"ATTRIBUTION_A":null,
"ATTRIBUTION_B":null,
"ATTRIBUTION_C":null,
"ATTRIBUTION_D":null,
"ATTRIBUTION_E":null,
"ATTRIBUTION_F":null,
"ATTRIBUTION_G":null,
"ATTRIBUTION_H":null,
"ATTRIBUTION_I":null,
"ATTRIBUTION_J":null,
"EDIT_TIME":"2018\/2\/1 16:24:02",
"EDITOR":"pmy",
"DESCRIBE":"84",
"IMAGE":null,
"OUTINTERFACE":null,
"status":"1"
},
{
"ID":12352,
"NAME":"111",
"LEG":null,
"FEATURECLASS":"N03",
"SMALLCLASS":"N0301",
"REGION":"南京",
"GEOMORDINATESARRAY":"[119.693275,32.276623,119.69156,32.2743]",
"END_LAT":32.276623,
"END_LON":119.693275,
"START_LAT":32.2743,
"START_LON":119.69156,
"BASETYPE":"1",
"DUIYINGDICENG":null,
"CREATE_TIME":"2018\/1\/29 16:06:23",
"CREATOR":"zjc",
"REMARK":null,
"ATTRIBUTION_A":null,
"ATTRIBUTION_B":null,
"ATTRIBUTION_C":null,
"ATTRIBUTION_D":null,
"ATTRIBUTION_E":null,
"ATTRIBUTION_F":null,
"ATTRIBUTION_G":null,
"ATTRIBUTION_H":null,
"ATTRIBUTION_I":null,
"ATTRIBUTION_J":null,
"EDIT_TIME":"2018\/1\/29 16:06:23",
"EDITOR":"zjc",
"DESCRIBE":"84",
"IMAGE":null,
"OUTINTERFACE":null,
"status":"1"
},
{
"ID":12353,
"NAME":"11",
"LEG":null,
"FEATURECLASS":"N03",
"SMALLCLASS":"N0301",
"REGION":"南京",
"GEOMORDINATESARRAY":"[119.70745,32.27827,119.7059,32.275513,119.70899,32.274788,119.709335,32.277252,119.70745,32.27827]",
"END_LAT":32.27827,
"END_LON":119.709335,
"START_LAT":32.274788,
"START_LON":119.7059,
"BASETYPE":"2",
"DUIYINGDICENG":null,
"CREATE_TIME":"2018\/1\/29 16:08:37",
"CREATOR":"zjc",
"REMARK":null,
"ATTRIBUTION_A":null,
"ATTRIBUTION_B":null,
"ATTRIBUTION_C":null,
"ATTRIBUTION_D":null,
"ATTRIBUTION_E":null,
"ATTRIBUTION_F":null,
"ATTRIBUTION_G":null,
"ATTRIBUTION_H":null,
"ATTRIBUTION_I":null,
"ATTRIBUTION_J":null,
"EDIT_TIME":"2018\/1\/29 16:08:37",
"EDITOR":"zjc",
"DESCRIBE":"84",
"IMAGE":null,
"OUTINTERFACE":null,
"status":"0"
},
{
"ID":12400,
"NAME":"宝塔水道修订扬子乙烯2.4万吨油轮专用航道海轮推荐航线",
"LEG":null,
"FEATURECLASS":"N03",
"SMALLCLASS":"N0301",
"REGION":"南京",
"GEOMORDINATESARRAY":"[119.8066,32.3486,119.8684,32.2534,119.1826,32.1826]",
"END_LAT":32.3486,
"END_LON":119.8684,
"START_LAT":32.1826,
"START_LON":119.1826,
"BASETYPE":"1",
"DUIYINGDICENG":null,
"CREATE_TIME":"2018\/2\/1 15:44:26",
"CREATOR":"njc",
"REMARK":null,
"ATTRIBUTION_A":null,
"ATTRIBUTION_B":null,
"ATTRIBUTION_C":null,
"ATTRIBUTION_D":null,
"ATTRIBUTION_E":null,
"ATTRIBUTION_F":null,
"ATTRIBUTION_G":null,
"ATTRIBUTION_H":null,
"ATTRIBUTION_I":null,
"ATTRIBUTION_J":null,
"EDIT_TIME":"2018\/2\/1 15:44:26",
"EDITOR":"njc",
"DESCRIBE":"84",
"IMAGE":null,
"OUTINTERFACE":null,
"status":"2"
},
{
"ID":12401,
"NAME":"test",
"LEG":null,
"FEATURECLASS":"N03",
"SMALLCLASS":"N0301",
"REGION":"南京",
"GEOMORDINATESARRAY":"[119.2649,32.3445]",
"END_LAT":32.3445,
"END_LON":119.2649,
"START_LAT":32.3445,
"START_LON":119.2649,
"BASETYPE":"0",
"DUIYINGDICENG":null,
"CREATE_TIME":"2018\/2\/1 16:23:46",
"CREATOR":"pmy",
"REMARK":null,
"ATTRIBUTION_A":null,
"ATTRIBUTION_B":null,
"ATTRIBUTION_C":null,
"ATTRIBUTION_D":null,
"ATTRIBUTION_E":null,
"ATTRIBUTION_F":null,
"ATTRIBUTION_G":null,
"ATTRIBUTION_H":null,
"ATTRIBUTION_I":null,
"ATTRIBUTION_J":null,
"EDIT_TIME":"2018\/2\/1 16:23:46",
"EDITOR":"pmy",
"DESCRIBE":"84",
"IMAGE":null,
"OUTINTERFACE":null,
"status":"1"
},
{
"ID":12402,
"NAME":"test",
"LEG":null,
"FEATURECLASS":"N03",
"SMALLCLASS":"N0301",
"REGION":"南京",
"GEOMORDINATESARRAY":"[119.04941,32.44403,119.21146,32.427807,119.12219,32.333866,119.01782,32.386066,119.02194,32.413895,119.04941,32.44403]",
"END_LAT":32.44403,
"END_LON":119.21146,
"START_LAT":32.333866,
"START_LON":119.01782,
"BASETYPE":"2",
"DUIYINGDICENG":null,
"CREATE_TIME":"2018\/2\/1 16:34:35",
"CREATOR":"pmy",
"REMARK":null,
"ATTRIBUTION_A":null,
"ATTRIBUTION_B":null,
"ATTRIBUTION_C":null,
"ATTRIBUTION_D":null,
"ATTRIBUTION_E":null,
"ATTRIBUTION_F":null,
"ATTRIBUTION_G":null,
"ATTRIBUTION_H":null,
"ATTRIBUTION_I":null,
"ATTRIBUTION_J":null,
"EDIT_TIME":"2018\/2\/1 16:34:35",
"EDITOR":"pmy",
"DESCRIBE":"84",
"IMAGE":"40",
"OUTINTERFACE":null,
"status":"0"
},
{
"ID":12403,
"NAME":"test",
"LEG":null,
"FEATURECLASS":"N03",
"SMALLCLASS":"N0301",
"REGION":"南京",
"GEOMORDINATESARRAY":"[118.848236,32.298367,119.11328,32.32042,119.16135,32.340145]",
"END_LAT":32.340145,
"END_LON":119.16135,
"START_LAT":32.298367,
"START_LON":118.848236,
"BASETYPE":"1",
"DUIYINGDICENG":null,
"CREATE_TIME":"2018\/2\/1 16:35:17",
"CREATOR":"pmy",
"REMARK":null,
"ATTRIBUTION_A":null,
"ATTRIBUTION_B":null,
"ATTRIBUTION_C":null,
"ATTRIBUTION_D":null,
"ATTRIBUTION_E":null,
"ATTRIBUTION_F":null,
"ATTRIBUTION_G":null,
"ATTRIBUTION_H":null,
"ATTRIBUTION_I":null,
"ATTRIBUTION_J":null,
"EDIT_TIME":"2018\/2\/1 16:35:17",
"EDITOR":"pmy",
"DESCRIBE":"84",
"IMAGE":"40",
"OUTINTERFACE":null,
"status":"0"
},
{
"ID":12404,
"NAME":"test",
"LEG":null,
"FEATURECLASS":"N03",
"SMALLCLASS":"N0301",
"REGION":"南京",
"GEOMORDINATESARRAY":"[119.8066,32.3486,119.8684,32.2534,119.1826,32.1826]",
"END_LAT":32.3486,
"END_LON":119.8684,
"START_LAT":32.1826,
"START_LON":119.1826,
"BASETYPE":"1",
"DUIYINGDICENG":null,
"CREATE_TIME":"2018\/2\/1 16:37:30",
"CREATOR":"pmy",
"REMARK":null,
"ATTRIBUTION_A":null,
"ATTRIBUTION_B":null,
"ATTRIBUTION_C":null,
"ATTRIBUTION_D":null,
"ATTRIBUTION_E":null,
"ATTRIBUTION_F":null,
"ATTRIBUTION_G":null,
"ATTRIBUTION_H":null,
"ATTRIBUTION_I":null,
"ATTRIBUTION_J":null,
"EDIT_TIME":"2018\/2\/1 16:37:30",
"EDITOR":"pmy",
"DESCRIBE":"84",
"IMAGE":null,
"OUTINTERFACE":null,
"status":"0"
},
{
"ID":12405,
"NAME":"test",
"LEG":null,
"FEATURECLASS":"N03",
"SMALLCLASS":"N0301",
"REGION":"南京",
"GEOMORDINATESARRAY":"[120.086266,32.419613,120.36043,32.436848,120.39688,32.28163]",
"END_LAT":32.436848,
"END_LON":120.39688,
"START_LAT":32.28163,
"START_LON":120.086266,
"BASETYPE":"1",
"DUIYINGDICENG":null,
"CREATE_TIME":"2018\/2\/1 16:39:12",
"CREATOR":"pmy",
"REMARK":null,
"ATTRIBUTION_A":null,
"ATTRIBUTION_B":null,
"ATTRIBUTION_C":null,
"ATTRIBUTION_D":null,
"ATTRIBUTION_E":null,
"ATTRIBUTION_F":null,
"ATTRIBUTION_G":null,
"ATTRIBUTION_H":null,
"ATTRIBUTION_I":null,
"ATTRIBUTION_J":null,
"EDIT_TIME":"2018\/2\/1 16:39:12",
"EDITOR":"pmy",
"DESCRIBE":"84",
"IMAGE":"40",
"OUTINTERFACE":null,
"status":"0"
},
{
"ID":12406,
"NAME":"修订宝塔水道扬子乙烯2.4万吨油轮专用航道海轮推荐航线",
"LEG":null,
"FEATURECLASS":"N03",
"SMALLCLASS":"N0301",
"REGION":"南京",
"GEOMORDINATESARRAY":"[118.86651,32.18539,118.86464,32.187103,118.86261,32.190376,118.86166,32.194508]",
"END_LAT":32.194508,
"END_LON":118.86651,
"START_LAT":32.18539,
"START_LON":118.86166,
"BASETYPE":"1",
"DUIYINGDICENG":null,
"CREATE_TIME":"2018\/2\/1 16:47:56",
"CREATOR":"njc",
"REMARK":null,
"ATTRIBUTION_A":null,
"ATTRIBUTION_B":null,
"ATTRIBUTION_C":null,
"ATTRIBUTION_D":null,
"ATTRIBUTION_E":null,
"ATTRIBUTION_F":null,
"ATTRIBUTION_G":null,
"ATTRIBUTION_H":null,
"ATTRIBUTION_I":null,
"ATTRIBUTION_J":null,
"EDIT_TIME":"2018\/2\/1 16:47:56",
"EDITOR":"njc",
"DESCRIBE":"84",
"IMAGE":"40",
"OUTINTERFACE":null,
"status":"1"
},
{
"ID":12450,
"NAME":"test",
"LEG":null,
"FEATURECLASS":"N03",
"SMALLCLASS":"N0301",
"REGION":"南京",
"GEOMORDINATESARRAY":"[39.123051358026,32.2294188044065,39.2823483236409,32.2491651420536,39.2823485281613,32.1666678635798,39.1422770121988,32.1666676150804,39.1477699224242,32.203858758994,39.1065724773185,32.1794537186837,39.123051358026,32.2294188044065]",
"END_LAT":32.2491651420536,
"END_LON":39.2823485281613,
"START_LAT":32.1666676150804,
"START_LON":39.1065724773185,
"BASETYPE":"2",
"DUIYINGDICENG":null,
"CREATE_TIME":"2018\/2\/1 17:06:30",
"CREATOR":"pmy",
"REMARK":null,
"ATTRIBUTION_A":null,
"ATTRIBUTION_B":null,
"ATTRIBUTION_C":null,
"ATTRIBUTION_D":null,
"ATTRIBUTION_E":null,
"ATTRIBUTION_F":null,
"ATTRIBUTION_G":null,
"ATTRIBUTION_H":null,
"ATTRIBUTION_I":null,
"ATTRIBUTION_J":null,
"EDIT_TIME":"2018\/2\/1 17:06:30",
"EDITOR":"pmy",
"DESCRIBE":"54",
"IMAGE":"40",
"OUTINTERFACE":null,
"status":"1"
},
{
"ID":12451,
"NAME":"九江水道拟增设安九桥施工浮",
"LEG":null,
"FEATURECLASS":"N03",
"SMALLCLASS":"N0301",
"REGION":"南京",
"GEOMORDINATESARRAY":"[115.82882,29.749495,115.83997,29.764845,115.8568,29.756947,115.84684,29.741446,115.82882,29.749495]",
"END_LAT":29.764845,
"END_LON":115.8568,
"START_LAT":29.741446,
"START_LON":115.82882,
"BASETYPE":"2",
"DUIYINGDICENG":null,
"CREATE_TIME":"2018\/2\/1 17:15:44",
"CREATOR":"jjc",
"REMARK":null,
"ATTRIBUTION_A":null,
"ATTRIBUTION_B":null,
"ATTRIBUTION_C":null,
"ATTRIBUTION_D":null,
"ATTRIBUTION_E":null,
"ATTRIBUTION_F":null,
"ATTRIBUTION_G":null,
"ATTRIBUTION_H":null,
"ATTRIBUTION_I":null,
"ATTRIBUTION_J":null,
"EDIT_TIME":"2018\/2\/1 17:15:44",
"EDITOR":"jjc",
"DESCRIBE":"84",
"IMAGE":null,
"OUTINTERFACE":null,
"status":"1"
},
{
"ID":12452,
"NAME":"关于浏海沙水道浅点的航道通告",
"LEG":null,
"FEATURECLASS":"N03",
"SMALLCLASS":"N0301",
"REGION":"南京",
"GEOMORDINATESARRAY":"[120.50512,32.030487,120.5361,32.018154,120.53396,32.01397,120.5028,32.026592,120.5031,32.027176,120.50512,32.030487]",
"END_LAT":32.030487,
"END_LON":120.5361,
"START_LAT":32.01397,
"START_LON":120.5028,
"BASETYPE":"2",
"DUIYINGDICENG":null,
"CREATE_TIME":"2018\/2\/2 09:35:49",
"CREATOR":"shc",
"REMARK":null,
"ATTRIBUTION_A":null,
"ATTRIBUTION_B":null,
"ATTRIBUTION_C":null,
"ATTRIBUTION_D":null,
"ATTRIBUTION_E":null,
"ATTRIBUTION_F":null,
"ATTRIBUTION_G":null,
"ATTRIBUTION_H":null,
"ATTRIBUTION_I":null,
"ATTRIBUTION_J":null,
"EDIT_TIME":"2018\/2\/2 09:35:49",
"EDITOR":"shc",
"DESCRIBE":"84",
"IMAGE":null,
"OUTINTERFACE":null,
"status":"1"
},
{
"ID":12453,
"NAME":"test",
"LEG":null,
"FEATURECLASS":"N03",
"SMALLCLASS":"N0301",
"REGION":"南京",
"GEOMORDINATESARRAY":"[120.055177040722,32.5022237226809,120.299622841516,32.516120967684,120.317475624709,32.42575049331]",
"END_LAT":32.516120967684,
"END_LON":120.317475624709,
"START_LAT":32.42575049331,
"START_LON":120.055177040722,
"BASETYPE":"1",
"DUIYINGDICENG":null,
"CREATE_TIME":"2018\/2\/2 17:15:23",
"CREATOR":"pmy",
"REMARK":null,
"ATTRIBUTION_A":null,
"ATTRIBUTION_B":null,
"ATTRIBUTION_C":null,
"ATTRIBUTION_D":null,
"ATTRIBUTION_E":null,
"ATTRIBUTION_F":null,
"ATTRIBUTION_G":null,
"ATTRIBUTION_H":null,
"ATTRIBUTION_I":null,
"ATTRIBUTION_J":null,
"EDIT_TIME":"2018\/2\/2 17:15:23",
"EDITOR":"pmy",
"DESCRIBE":"54",
"IMAGE":"120",
"OUTINTERFACE":null,
"status":"1"
},
{
"ID":12454,
"NAME":"test2",
"LEG":null,
"FEATURECLASS":"N03",
"SMALLCLASS":"N0301",
"REGION":"南京",
"GEOMORDINATESARRAY":"[120.107203246656,32.3943261648959,120.254145385338,32.427947746148,120.254145385329,32.3537317181263,120.181360961498,32.3537317181306,120.107203246656,32.3943261648959]",
"END_LAT":32.427947746148,
"END_LON":120.254145385338,
"START_LAT":32.3537317181263,
"START_LON":120.107203246656,
"BASETYPE":"2",
"DUIYINGDICENG":null,
"CREATE_TIME":"2018\/2\/2 17:15:57",
"CREATOR":"pmy",
"REMARK":null,
"ATTRIBUTION_A":null,
"ATTRIBUTION_B":null,
"ATTRIBUTION_C":null,
"ATTRIBUTION_D":null,
"ATTRIBUTION_E":null,
"ATTRIBUTION_F":null,
"ATTRIBUTION_G":null,
"ATTRIBUTION_H":null,
"ATTRIBUTION_I":null,
"ATTRIBUTION_J":null,
"EDIT_TIME":"2018\/2\/2 17:15:57",
"EDITOR":"pmy",
"DESCRIBE":"54",
"IMAGE":"120",
"OUTINTERFACE":null,
"status":"0"
},
{
"ID":12455,
"NAME":"test",
"LEG":null,
"FEATURECLASS":"N03",
"SMALLCLASS":"N0301",
"REGION":"南京",
"GEOMORDINATESARRAY":"[120.309100018601,32.302700002128]",
"END_LAT":32.302700002128,
"END_LON":120.309100018601,
"START_LAT":32.302700002128,
"START_LON":120.309100018601,
"BASETYPE":"0",
"DUIYINGDICENG":null,
"CREATE_TIME":"2018\/2\/2 17:16:14",
"CREATOR":"pmy",
"REMARK":null,
"ATTRIBUTION_A":null,
"ATTRIBUTION_B":null,
"ATTRIBUTION_C":null,
"ATTRIBUTION_D":null,
"ATTRIBUTION_E":null,
"ATTRIBUTION_F":null,
"ATTRIBUTION_G":null,
"ATTRIBUTION_H":null,
"ATTRIBUTION_I":null,
"ATTRIBUTION_J":null,
"EDIT_TIME":"2018\/2\/2 17:16:14",
"EDITOR":"pmy",
"DESCRIBE":"54",
"IMAGE":"120",
"OUTINTERFACE":null,
"status":"0"
},
{
"ID":12500,
"NAME":"贵池水道",
"LEG":null,
"FEATURECLASS":"N03",
"SMALLCLASS":"N0301",
"REGION":"南京",
"GEOMORDINATESARRAY":"[117.450676,30.730494,117.44149,30.732708,117.43583,30.734625,117.4451,30.738941]",
"END_LAT":30.738941,
"END_LON":117.450676,
"START_LAT":30.730494,
"START_LON":117.43583,
"BASETYPE":"1",
"DUIYINGDICENG":null,
"CREATE_TIME":"2018\/2\/5 17:23:17",
"CREATOR":"whc",
"REMARK":null,
"ATTRIBUTION_A":null,
"ATTRIBUTION_B":null,
"ATTRIBUTION_C":null,
"ATTRIBUTION_D":null,
"ATTRIBUTION_E":null,
"ATTRIBUTION_F":null,
"ATTRIBUTION_G":null,
"ATTRIBUTION_H":null,
"ATTRIBUTION_I":null,
"ATTRIBUTION_J":null,
"EDIT_TIME":"2018\/2\/5 17:23:17",
"EDITOR":"whc",
"DESCRIBE":"84",
"IMAGE":"0",
"OUTINTERFACE":null,
"status":"1"
},
{
"ID":12501,
"NAME":"贵池水道设置整治工程专用浮",
"LEG":null,
"FEATURECLASS":"N03",
"SMALLCLASS":"N0301",
"REGION":"南京",
"GEOMORDINATESARRAY":"[117.452835,30.729635,117.44309,30.732365,117.43399,30.734762,117.44421,30.738525]",
"END_LAT":30.738525,
"END_LON":117.452835,
"START_LAT":30.729635,
"START_LON":117.43399,
"BASETYPE":"1",
"DUIYINGDICENG":null,
"CREATE_TIME":"2018\/2\/5 17:28:51",
"CREATOR":"whc",
"REMARK":null,
"ATTRIBUTION_A":null,
"ATTRIBUTION_B":null,
"ATTRIBUTION_C":null,
"ATTRIBUTION_D":null,
"ATTRIBUTION_E":null,
"ATTRIBUTION_F":null,
"ATTRIBUTION_G":null,
"ATTRIBUTION_H":null,
"ATTRIBUTION_I":null,
"ATTRIBUTION_J":null,
"EDIT_TIME":"2018\/2\/5 17:28:51",
"EDITOR":"whc",
"DESCRIBE":"84",
"IMAGE":"0",
"OUTINTERFACE":null,
"status":"1"
},
{
"ID":12502,
"NAME":"1",
"LEG":null,
"FEATURECLASS":"N03",
"SMALLCLASS":"N0301",
"REGION":"南京",
"GEOMORDINATESARRAY":"[117.44826,30.730366]",
"END_LAT":30.730366,
"END_LON":117.44826,
"START_LAT":30.730366,
"START_LON":117.44826,
"BASETYPE":"0",
"DUIYINGDICENG":null,
"CREATE_TIME":"2018\/2\/6 09:55:52",
"CREATOR":"whc",
"REMARK":null,
"ATTRIBUTION_A":null,
"ATTRIBUTION_B":null,
"ATTRIBUTION_C":null,
"ATTRIBUTION_D":null,
"ATTRIBUTION_E":null,
"ATTRIBUTION_F":null,
"ATTRIBUTION_G":null,
"ATTRIBUTION_H":null,
"ATTRIBUTION_I":null,
"ATTRIBUTION_J":null,
"EDIT_TIME":"2018\/2\/6 09:55:52",
"EDITOR":"whc",
"DESCRIBE":"84",
"IMAGE":"0",
"OUTINTERFACE":null,
"status":"0"
},
{
"ID":12503,
"NAME":"关于长江北支水道 航标异动的航道通告",
"LEG":null,
"FEATURECLASS":"N03",
"SMALLCLASS":"N0301",
"REGION":"南京",
"GEOMORDINATESARRAY":"[32.3173,119.7283]",
"END_LAT":119.7283,
"END_LON":32.3173,
"START_LAT":119.7283,
"START_LON":32.3173,
"BASETYPE":"0",
"DUIYINGDICENG":null,
"CREATE_TIME":"2018\/2\/6 15:55:46",
"CREATOR":"shc",
"REMARK":null,
"ATTRIBUTION_A":null,
"ATTRIBUTION_B":null,
"ATTRIBUTION_C":null,
"ATTRIBUTION_D":null,
"ATTRIBUTION_E":null,
"ATTRIBUTION_F":null,
"ATTRIBUTION_G":null,
"ATTRIBUTION_H":null,
"ATTRIBUTION_I":null,
"ATTRIBUTION_J":null,
"EDIT_TIME":"2018\/2\/6 15:55:46",
"EDITOR":"shc",
"DESCRIBE":"84",
"IMAGE":"0",
"OUTINTERFACE":null,
"status":"0"
},
{
"ID":12550,
"NAME":"关于福姜沙水道#41浮至#42浮航段 推荐航路浅点的航道通告",
"LEG":null,
"FEATURECLASS":"N03",
"SMALLCLASS":"N0301",
"REGION":"南京",
"GEOMORDINATESARRAY":"[120.51738,32.024254,120.52949,32.020103,120.52717,32.016464,120.514984,32.021484,120.51738,32.024254]",
"END_LAT":32.024254,
"END_LON":120.52949,
"START_LAT":32.016464,
"START_LON":120.514984,
"BASETYPE":"2",
"DUIYINGDICENG":null,
"CREATE_TIME":"2018\/2\/8 16:12:23",
"CREATOR":"shc",
"REMARK":null,
"ATTRIBUTION_A":null,
"ATTRIBUTION_B":null,
"ATTRIBUTION_C":null,
"ATTRIBUTION_D":null,
"ATTRIBUTION_E":null,
"ATTRIBUTION_F":null,
"ATTRIBUTION_G":null,
"ATTRIBUTION_H":null,
"ATTRIBUTION_I":null,
"ATTRIBUTION_J":null,
"EDIT_TIME":"2018\/2\/8 16:12:23",
"EDITOR":"shc",
"DESCRIBE":"84",
"IMAGE":"0",
"OUTINTERFACE":null,
"status":"1"
},
{
"ID":12551,
"NAME":"关于长江北支水道 航标异动的航道通告",
"LEG":null,
"FEATURECLASS":"N03",
"SMALLCLASS":"N0301",
"REGION":"南京",
"GEOMORDINATESARRAY":"[121.874825,31.686565,121.874825,31.686565,121.88061,31.688921]",
"END_LAT":31.688921,
"END_LON":121.88061,
"START_LAT":31.686565,
"START_LON":121.874825,
"BASETYPE":"1",
"DUIYINGDICENG":null,
"CREATE_TIME":"2018\/2\/8 17:09:38",
"CREATOR":"shc",
"REMARK":null,
"ATTRIBUTION_A":null,
"ATTRIBUTION_B":null,
"ATTRIBUTION_C":null,
"ATTRIBUTION_D":null,
"ATTRIBUTION_E":null,
"ATTRIBUTION_F":null,
"ATTRIBUTION_G":null,
"ATTRIBUTION_H":null,
"ATTRIBUTION_I":null,
"ATTRIBUTION_J":null,
"EDIT_TIME":"2018\/2\/8 17:09:38",
"EDITOR":"shc",
"DESCRIBE":"84",
"IMAGE":"0",
"OUTINTERFACE":null,
"status":"1"
},
{
"ID":12552,
"NAME":"关于福姜沙水道（南水道）浅点的航道通告",
"LEG":null,
"FEATURECLASS":"N03",
"SMALLCLASS":"N0301",
"REGION":"南京",
"GEOMORDINATESARRAY":"[120.44909,31.983889,120.45051,31.983232,120.44472,31.977118,120.44325,31.978172,120.44909,31.983889]",
"END_LAT":31.983889,
"END_LON":120.45051,
"START_LAT":31.977118,
"START_LON":120.44325,
"BASETYPE":"2",
"DUIYINGDICENG":null,
"CREATE_TIME":"2018\/2\/9 12:05:29",
"CREATOR":"shc",
"REMARK":null,
"ATTRIBUTION_A":null,
"ATTRIBUTION_B":null,
"ATTRIBUTION_C":null,
"ATTRIBUTION_D":null,
"ATTRIBUTION_E":null,
"ATTRIBUTION_F":null,
"ATTRIBUTION_G":null,
"ATTRIBUTION_H":null,
"ATTRIBUTION_I":null,
"ATTRIBUTION_J":null,
"EDIT_TIME":"2018\/2\/22 13:39:13",
"EDITOR":"shc",
"DESCRIBE":"84",
"IMAGE":"0",
"OUTINTERFACE":null,
"status":"1"
},
{
"ID":12553,
"NAME":"关于福姜沙水道（南水道）浅点的航道通告",
"LEG":null,
"FEATURECLASS":"N03",
"SMALLCLASS":"N0301",
"REGION":"南京",
"GEOMORDINATESARRAY":"[120.35073,31.966305,120.35168,31.963757,120.371376,31.967617,120.37043,31.970675,120.35073,31.966305]",
"END_LAT":31.970675,
"END_LON":120.371376,
"START_LAT":31.963757,
"START_LON":120.35073,
"BASETYPE":"2",
"DUIYINGDICENG":null,
"CREATE_TIME":"2018\/2\/9 12:06:57",
"CREATOR":"shc",
"REMARK":null,
"ATTRIBUTION_A":null,
"ATTRIBUTION_B":null,
"ATTRIBUTION_C":null,
"ATTRIBUTION_D":null,
"ATTRIBUTION_E":null,
"ATTRIBUTION_F":null,
"ATTRIBUTION_G":null,
"ATTRIBUTION_H":null,
"ATTRIBUTION_I":null,
"ATTRIBUTION_J":null,
"EDIT_TIME":"2018\/2\/9 12:06:57",
"EDITOR":"shc",
"DESCRIBE":"84",
"IMAGE":"0",
"OUTINTERFACE":null,
"status":"1"
},
{
"ID":12554,
"NAME":"关于福姜沙北水道浅点的航道通告",
"LEG":null,
"FEATURECLASS":"N03",
"SMALLCLASS":"N0301",
"REGION":"南京",
"GEOMORDINATESARRAY":"[120.52669,32.063465,120.51211,32.069275,120.502754,32.071056,120.48544,32.07011,120.4851,32.071674,120.50274,32.072437,120.51261,32.070545,120.52753,32.06455,120.52669,32.063465]",
"END_LAT":32.072437,
"END_LON":120.52753,
"START_LAT":32.063465,
"START_LON":120.4851,
"BASETYPE":"2",
"DUIYINGDICENG":null,
"CREATE_TIME":"2018\/2\/9 14:31:47",
"CREATOR":"shc",
"REMARK":null,
"ATTRIBUTION_A":null,
"ATTRIBUTION_B":null,
"ATTRIBUTION_C":null,
"ATTRIBUTION_D":null,
"ATTRIBUTION_E":null,
"ATTRIBUTION_F":null,
"ATTRIBUTION_G":null,
"ATTRIBUTION_H":null,
"ATTRIBUTION_I":null,
"ATTRIBUTION_J":null,
"EDIT_TIME":"2018\/2\/9 14:31:47",
"EDITOR":"shc",
"DESCRIBE":"84",
"IMAGE":"0",
"OUTINTERFACE":null,
"status":"1"
},
{
"ID":12555,
"NAME":"长江镇江航道处关于丹徒直水道调整#102-1红浮 的航道通告",
"LEG":null,
"FEATURECLASS":"N03",
"SMALLCLASS":"N0301",
"REGION":"南京",
"GEOMORDINATESARRAY":"[119.5643,32.1896]",
"END_LAT":32.1896,
"END_LON":119.5643,
"START_LAT":32.1896,
"START_LON":119.5643,
"BASETYPE":"0",
"DUIYINGDICENG":null,
"CREATE_TIME":"2018\/2\/10 13:47:28",
"CREATOR":"zjc",
"REMARK":null,
"ATTRIBUTION_A":null,
"ATTRIBUTION_B":null,
"ATTRIBUTION_C":null,
"ATTRIBUTION_D":null,
"ATTRIBUTION_E":null,
"ATTRIBUTION_F":null,
"ATTRIBUTION_G":null,
"ATTRIBUTION_H":null,
"ATTRIBUTION_I":null,
"ATTRIBUTION_J":null,
"EDIT_TIME":"2018\/2\/10 13:47:28",
"EDITOR":"zjc",
"DESCRIBE":"84",
"IMAGE":"0",
"OUTINTERFACE":null,
"status":"1"
},
{
"ID":12556,
"NAME":"调整#102-1红浮 ",
"LEG":null,
"FEATURECLASS":"N03",
"SMALLCLASS":"N0301",
"REGION":"南京",
"GEOMORDINATESARRAY":"[119.5643,32.1896]",
"END_LAT":32.1896,
"END_LON":119.5643,
"START_LAT":32.1896,
"START_LON":119.5643,
"BASETYPE":"0",
"DUIYINGDICENG":null,
"CREATE_TIME":"2018\/2\/10 13:49:25",
"CREATOR":"zjc",
"REMARK":null,
"ATTRIBUTION_A":null,
"ATTRIBUTION_B":null,
"ATTRIBUTION_C":null,
"ATTRIBUTION_D":null,
"ATTRIBUTION_E":null,
"ATTRIBUTION_F":null,
"ATTRIBUTION_G":null,
"ATTRIBUTION_H":null,
"ATTRIBUTION_I":null,
"ATTRIBUTION_J":null,
"EDIT_TIME":"2018\/2\/10 13:49:25",
"EDITOR":"zjc",
"DESCRIBE":"84",
"IMAGE":"0",
"OUTINTERFACE":null,
"status":"1"
},
{
"ID":12557,
"NAME":"调整#102-1红浮",
"LEG":null,
"FEATURECLASS":"N03",
"SMALLCLASS":"N0301",
"REGION":"南京",
"GEOMORDINATESARRAY":"[119.5641,32.1893]",
"END_LAT":32.1893,
"END_LON":119.5641,
"START_LAT":32.1893,
"START_LON":119.5641,
"BASETYPE":"0",
"DUIYINGDICENG":null,
"CREATE_TIME":"2018\/2\/11 08:50:09",
"CREATOR":"zjc",
"REMARK":null,
"ATTRIBUTION_A":null,
"ATTRIBUTION_B":null,
"ATTRIBUTION_C":null,
"ATTRIBUTION_D":null,
"ATTRIBUTION_E":null,
"ATTRIBUTION_F":null,
"ATTRIBUTION_G":null,
"ATTRIBUTION_H":null,
"ATTRIBUTION_I":null,
"ATTRIBUTION_J":null,
"EDIT_TIME":"2018\/2\/11 08:50:09",
"EDITOR":"zjc",
"DESCRIBE":"84",
"IMAGE":"0",
"OUTINTERFACE":null,
"status":"1"
},
{
"ID":12558,
"NAME":"乌江#11白灯船失常，暂不能恢复",
"LEG":null,
"FEATURECLASS":"N03",
"SMALLCLASS":"N0301",
"REGION":"南京",
"GEOMORDINATESARRAY":"[118.4192,31.7219]",
"END_LAT":31.7219,
"END_LON":118.4192,
"START_LAT":31.7219,
"START_LON":118.4192,
"BASETYPE":"0",
"DUIYINGDICENG":null,
"CREATE_TIME":"2018\/2\/12 14:55:05",
"CREATOR":"whc",
"REMARK":null,
"ATTRIBUTION_A":null,
"ATTRIBUTION_B":null,
"ATTRIBUTION_C":null,
"ATTRIBUTION_D":null,
"ATTRIBUTION_E":null,
"ATTRIBUTION_F":null,
"ATTRIBUTION_G":null,
"ATTRIBUTION_H":null,
"ATTRIBUTION_I":null,
"ATTRIBUTION_J":null,
"EDIT_TIME":"2018\/2\/12 14:55:05",
"EDITOR":"whc",
"DESCRIBE":"84",
"IMAGE":"0",
"OUTINTERFACE":null,
"status":"1"
},
{
"ID":12559,
"NAME":"关于浏河水道浅点的航道通告",
"LEG":null,
"FEATURECLASS":"N03",
"SMALLCLASS":"N0301",
"REGION":"南京",
"GEOMORDINATESARRAY":"[121.332344,31.553228,121.32319,31.545763,121.307076,31.563492,121.31642,31.569872,121.329475,31.556284,121.332344,31.553228]",
"END_LAT":31.569872,
"END_LON":121.332344,
"START_LAT":31.545763,
"START_LON":121.307076,
"BASETYPE":"2",
"DUIYINGDICENG":null,
"CREATE_TIME":"2018\/2\/13 08:53:10",
"CREATOR":"shc",
"REMARK":null,
"ATTRIBUTION_A":null,
"ATTRIBUTION_B":null,
"ATTRIBUTION_C":null,
"ATTRIBUTION_D":null,
"ATTRIBUTION_E":null,
"ATTRIBUTION_F":null,
"ATTRIBUTION_G":null,
"ATTRIBUTION_H":null,
"ATTRIBUTION_I":null,
"ATTRIBUTION_J":null,
"EDIT_TIME":"2018\/2\/13 08:53:10",
"EDITOR":"shc",
"DESCRIBE":"84",
"IMAGE":"0",
"OUTINTERFACE":null,
"status":"1"
},
{
"ID":12560,
"NAME":"关于新洲水道水情变化的航道通告",
"LEG":null,
"FEATURECLASS":"N03",
"SMALLCLASS":"N0301",
"REGION":"南京",
"GEOMORDINATESARRAY":"[115.77137,29.7919,115.72966,29.819456,115.734634,29.823626,115.77609,29.795177,115.77137,29.7919]",
"END_LAT":29.823626,
"END_LON":115.77609,
"START_LAT":29.7919,
"START_LON":115.72966,
"BASETYPE":"2",
"DUIYINGDICENG":null,
"CREATE_TIME":"2018\/2\/14 11:58:11",
"CREATOR":"jjc",
"REMARK":null,
"ATTRIBUTION_A":null,
"ATTRIBUTION_B":null,
"ATTRIBUTION_C":null,
"ATTRIBUTION_D":null,
"ATTRIBUTION_E":null,
"ATTRIBUTION_F":null,
"ATTRIBUTION_G":null,
"ATTRIBUTION_H":null,
"ATTRIBUTION_I":null,
"ATTRIBUTION_J":null,
"EDIT_TIME":"2018\/2\/14 11:58:11",
"EDITOR":"jjc",
"DESCRIBE":"84",
"IMAGE":"0",
"OUTINTERFACE":null,
"status":"1"
},
{
"ID":12561,
"NAME":"关于福姜沙水道（南水道）浅点的航道通告",
"LEG":null,
"FEATURECLASS":"N03",
"SMALLCLASS":"N0301",
"REGION":"南京",
"GEOMORDINATESARRAY":"[119.7283,32.3173]",
"END_LAT":32.3173,
"END_LON":119.7283,
"START_LAT":32.3173,
"START_LON":119.7283,
"BASETYPE":"0",
"DUIYINGDICENG":null,
"CREATE_TIME":"2018\/2\/22 13:41:24",
"CREATOR":"shc",
"REMARK":null,
"ATTRIBUTION_A":null,
"ATTRIBUTION_B":null,
"ATTRIBUTION_C":null,
"ATTRIBUTION_D":null,
"ATTRIBUTION_E":null,
"ATTRIBUTION_F":null,
"ATTRIBUTION_G":null,
"ATTRIBUTION_H":null,
"ATTRIBUTION_I":null,
"ATTRIBUTION_J":null,
"EDIT_TIME":"2018\/2\/22 13:41:24",
"EDITOR":"shc",
"DESCRIBE":"84",
"IMAGE":"0",
"OUTINTERFACE":null,
"status":"0"
},
{
"ID":12562,
"NAME":"关于福姜沙水道（南水道）浅点的航道通告",
"LEG":null,
"FEATURECLASS":"N03",
"SMALLCLASS":"N0301",
"REGION":"南京",
"GEOMORDINATESARRAY":"[120.4494,31.98405,120.45038,31.983559,120.4445,31.97714,120.443344,31.977903,120.4494,31.98405]",
"END_LAT":31.98405,
"END_LON":120.45038,
"START_LAT":31.97714,
"START_LON":120.443344,
"BASETYPE":"2",
"DUIYINGDICENG":null,
"CREATE_TIME":"2018\/2\/22 13:43:47",
"CREATOR":"shc",
"REMARK":null,
"ATTRIBUTION_A":null,
"ATTRIBUTION_B":null,
"ATTRIBUTION_C":null,
"ATTRIBUTION_D":null,
"ATTRIBUTION_E":null,
"ATTRIBUTION_F":null,
"ATTRIBUTION_G":null,
"ATTRIBUTION_H":null,
"ATTRIBUTION_I":null,
"ATTRIBUTION_J":null,
"EDIT_TIME":"2018\/2\/22 13:43:47",
"EDITOR":"shc",
"DESCRIBE":"84",
"IMAGE":"0",
"OUTINTERFACE":null,
"status":"1"
},
{
"ID":12563,
"NAME":"关于福姜沙北水道浅点的航道通告",
"LEG":null,
"FEATURECLASS":"N03",
"SMALLCLASS":"N0301",
"REGION":"南京",
"GEOMORDINATESARRAY":"[120.526764,32.063686,120.512215,32.06943,120.50273,32.071213,120.48532,32.07045,120.48519,32.07165,120.50287,32.072704,120.51326,32.070995,120.52755,32.064995,120.526764,32.063686]",
"END_LAT":32.072704,
"END_LON":120.52755,
"START_LAT":32.063686,
"START_LON":120.48519,
"BASETYPE":"2",
"DUIYINGDICENG":null,
"CREATE_TIME":"2018\/2\/22 13:45:39",
"CREATOR":"shc",
"REMARK":null,
"ATTRIBUTION_A":null,
"ATTRIBUTION_B":null,
"ATTRIBUTION_C":null,
"ATTRIBUTION_D":null,
"ATTRIBUTION_E":null,
"ATTRIBUTION_F":null,
"ATTRIBUTION_G":null,
"ATTRIBUTION_H":null,
"ATTRIBUTION_I":null,
"ATTRIBUTION_J":null,
"EDIT_TIME":"2018\/2\/22 13:45:39",
"EDITOR":"shc",
"DESCRIBE":"84",
"IMAGE":"0",
"OUTINTERFACE":null,
"status":"1"
},
{
"ID":12564,
"NAME":"关于浏海沙水道推荐航路浅点的航道通告",
"LEG":null,
"FEATURECLASS":"N03",
"SMALLCLASS":"N0301",
"REGION":"南京",
"GEOMORDINATESARRAY":"[120.51742,32.02525,120.51472,32.02092,120.52746,32.01586,120.53072,32.02059,120.51742,32.02525]",
"END_LAT":32.02525,
"END_LON":120.53072,
"START_LAT":32.01586,
"START_LON":120.51472,
"BASETYPE":"2",
"DUIYINGDICENG":null,
"CREATE_TIME":"2018\/2\/26 09:10:34",
"CREATOR":"shc",
"REMARK":null,
"ATTRIBUTION_A":null,
"ATTRIBUTION_B":null,
"ATTRIBUTION_C":null,
"ATTRIBUTION_D":null,
"ATTRIBUTION_E":null,
"ATTRIBUTION_F":null,
"ATTRIBUTION_G":null,
"ATTRIBUTION_H":null,
"ATTRIBUTION_I":null,
"ATTRIBUTION_J":null,
"EDIT_TIME":"2018\/2\/26 09:10:34",
"EDITOR":"shc",
"DESCRIBE":"84",
"IMAGE":"0",
"OUTINTERFACE":null,
"status":"1"
},
{
"ID":12600,
"NAME":"关于福姜沙水道（南水道）浅点的航道通告",
"LEG":null,
"FEATURECLASS":"N03",
"SMALLCLASS":"N0301",
"REGION":"南京",
"GEOMORDINATESARRAY":"[120.350365,31.966612,120.35143,31.963736,120.37319,31.967886,120.37242,31.97116,120.350365,31.966612]",
"END_LAT":31.97116,
"END_LON":120.37319,
"START_LAT":31.963736,
"START_LON":120.350365,
"BASETYPE":"2",
"DUIYINGDICENG":null,
"CREATE_TIME":"2018\/3\/1 09:14:12",
"CREATOR":"shc",
"REMARK":null,
"ATTRIBUTION_A":null,
"ATTRIBUTION_B":null,
"ATTRIBUTION_C":null,
"ATTRIBUTION_D":null,
"ATTRIBUTION_E":null,
"ATTRIBUTION_F":null,
"ATTRIBUTION_G":null,
"ATTRIBUTION_H":null,
"ATTRIBUTION_I":null,
"ATTRIBUTION_J":null,
"EDIT_TIME":"2018\/3\/1 09:14:50",
"EDITOR":"shc",
"DESCRIBE":"84",
"IMAGE":"0",
"OUTINTERFACE":null,
"status":"1"
},
{
"ID":12601,
"NAME":"关于福姜沙水道（南水道）浅点的航道通告",
"LEG":null,
"FEATURECLASS":"N03",
"SMALLCLASS":"N0301",
"REGION":"南京",
"GEOMORDINATESARRAY":"[120.34964,31.966633,120.35088,31.963428,120.37363,31.96787,120.3726,31.97122,120.34964,31.966633]",
"END_LAT":31.97122,
"END_LON":120.37363,
"START_LAT":31.963428,
"START_LON":120.34964,
"BASETYPE":"2",
"DUIYINGDICENG":null,
"CREATE_TIME":"2018\/3\/1 09:29:30",
"CREATOR":"shc",
"REMARK":null,
"ATTRIBUTION_A":null,
"ATTRIBUTION_B":null,
"ATTRIBUTION_C":null,
"ATTRIBUTION_D":null,
"ATTRIBUTION_E":null,
"ATTRIBUTION_F":null,
"ATTRIBUTION_G":null,
"ATTRIBUTION_H":null,
"ATTRIBUTION_I":null,
"ATTRIBUTION_J":null,
"EDIT_TIME":"2018\/3\/1 09:29:30",
"EDITOR":"shc",
"DESCRIBE":"84",
"IMAGE":"0",
"OUTINTERFACE":null,
"status":"1"
},
{
"ID":12602,
"NAME":"关于南通水道通二锚#5专用浮失常的航道通告",
"LEG":null,
"FEATURECLASS":"N03",
"SMALLCLASS":"N0301",
"REGION":"南京",
"GEOMORDINATESARRAY":"[32.3173,119.7283]",
"END_LAT":119.7283,
"END_LON":32.3173,
"START_LAT":119.7283,
"START_LON":32.3173,
"BASETYPE":"0",
"DUIYINGDICENG":null,
"CREATE_TIME":"2018\/3\/4 20:19:37",
"CREATOR":"shc",
"REMARK":null,
"ATTRIBUTION_A":null,
"ATTRIBUTION_B":null,
"ATTRIBUTION_C":null,
"ATTRIBUTION_D":null,
"ATTRIBUTION_E":null,
"ATTRIBUTION_F":null,
"ATTRIBUTION_G":null,
"ATTRIBUTION_H":null,
"ATTRIBUTION_I":null,
"ATTRIBUTION_J":null,
"EDIT_TIME":"2018\/3\/4 20:19:37",
"EDITOR":"shc",
"DESCRIBE":"84",
"IMAGE":"0",
"OUTINTERFACE":null,
"status":"2"
},
{
"ID":12603,
"NAME":"关于常熟港专用水道专桥#4红浮失常的航道通告",
"LEG":null,
"FEATURECLASS":"N03",
"SMALLCLASS":"N0301",
"REGION":"南京",
"GEOMORDINATESARRAY":"[120.9809,31.7641]",
"END_LAT":31.7641,
"END_LON":120.9809,
"START_LAT":31.7641,
"START_LON":120.9809,
"BASETYPE":"0",
"DUIYINGDICENG":null,
"CREATE_TIME":"2018\/3\/4 20:51:29",
"CREATOR":"shc",
"REMARK":null,
"ATTRIBUTION_A":null,
"ATTRIBUTION_B":null,
"ATTRIBUTION_C":null,
"ATTRIBUTION_D":null,
"ATTRIBUTION_E":null,
"ATTRIBUTION_F":null,
"ATTRIBUTION_G":null,
"ATTRIBUTION_H":null,
"ATTRIBUTION_I":null,
"ATTRIBUTION_J":null,
"EDIT_TIME":"2018\/3\/4 20:51:29",
"EDITOR":"shc",
"DESCRIBE":"84",
"IMAGE":"0",
"OUTINTERFACE":null,
"status":"1"
},
{
"ID":12604,
"NAME":"关于通州沙东水道苏桥#22黑浮失常的航道通告",
"LEG":null,
"FEATURECLASS":"N03",
"SMALLCLASS":"N0301",
"REGION":"南京",
"GEOMORDINATESARRAY":"[120.9004,31.8449]",
"END_LAT":31.8449,
"END_LON":120.9004,
"START_LAT":31.8449,
"START_LON":120.9004,
"BASETYPE":"0",
"DUIYINGDICENG":null,
"CREATE_TIME":"2018\/3\/4 21:56:11",
"CREATOR":"shc",
"REMARK":null,
"ATTRIBUTION_A":null,
"ATTRIBUTION_B":null,
"ATTRIBUTION_C":null,
"ATTRIBUTION_D":null,
"ATTRIBUTION_E":null,
"ATTRIBUTION_F":null,
"ATTRIBUTION_G":null,
"ATTRIBUTION_H":null,
"ATTRIBUTION_I":null,
"ATTRIBUTION_J":null,
"EDIT_TIME":"2018\/3\/4 21:56:11",
"EDITOR":"shc",
"DESCRIBE":"84",
"IMAGE":"0",
"OUTINTERFACE":null,
"status":"1"
},
{
"ID":12605,
"NAME":"调整高资过驳#1、#2、#3 专用浮",
"LEG":null,
"FEATURECLASS":"N03",
"SMALLCLASS":"N0301",
"REGION":"南京",
"GEOMORDINATESARRAY":"[119.8066,32.3486,119.8684,32.2534,119.1826,32.1826,119.8066,32.3486]",
"END_LAT":32.3486,
"END_LON":119.8684,
"START_LAT":32.1826,
"START_LON":119.1826,
"BASETYPE":"2",
"DUIYINGDICENG":null,
"CREATE_TIME":"2018\/3\/6 15:37:51",
"CREATOR":"zjc",
"REMARK":null,
"ATTRIBUTION_A":null,
"ATTRIBUTION_B":null,
"ATTRIBUTION_C":null,
"ATTRIBUTION_D":null,
"ATTRIBUTION_E":null,
"ATTRIBUTION_F":null,
"ATTRIBUTION_G":null,
"ATTRIBUTION_H":null,
"ATTRIBUTION_I":null,
"ATTRIBUTION_J":null,
"EDIT_TIME":"2018\/3\/6 15:37:51",
"EDITOR":"zjc",
"DESCRIBE":"84",
"IMAGE":"0",
"OUTINTERFACE":null,
"status":"0"
},
{
"ID":12606,
"NAME":"关于通州沙东水道苏桥#4黑浮失常的航道通告",
"LEG":null,
"FEATURECLASS":"N03",
"SMALLCLASS":"N0301",
"REGION":"南京",
"GEOMORDINATESARRAY":"[120.9898,31.7805]",
"END_LAT":31.7805,
"END_LON":120.9898,
"START_LAT":31.7805,
"START_LON":120.9898,
"BASETYPE":"0",
"DUIYINGDICENG":null,
"CREATE_TIME":"2018\/3\/8 23:52:10",
"CREATOR":"shc",
"REMARK":null,
"ATTRIBUTION_A":null,
"ATTRIBUTION_B":null,
"ATTRIBUTION_C":null,
"ATTRIBUTION_D":null,
"ATTRIBUTION_E":null,
"ATTRIBUTION_F":null,
"ATTRIBUTION_G":null,
"ATTRIBUTION_H":null,
"ATTRIBUTION_I":null,
"ATTRIBUTION_J":null,
"EDIT_TIME":"2018\/3\/8 23:52:10",
"EDITOR":"shc",
"DESCRIBE":"84",
"IMAGE":"120",
"OUTINTERFACE":null,
"status":"1"
},
{
"ID":12607,
"NAME":"关于浏河水道浅点的航道通告",
"LEG":null,
"FEATURECLASS":"N03",
"SMALLCLASS":"N0301",
"REGION":"南京",
"GEOMORDINATESARRAY":"[121.3188,31.5581]",
"END_LAT":31.5581,
"END_LON":121.3188,
"START_LAT":31.5581,
"START_LON":121.3188,
"BASETYPE":"0",
"DUIYINGDICENG":null,
"CREATE_TIME":"2018\/3\/10 22:13:18",
"CREATOR":"shc",
"REMARK":null,
"ATTRIBUTION_A":null,
"ATTRIBUTION_B":null,
"ATTRIBUTION_C":null,
"ATTRIBUTION_D":null,
"ATTRIBUTION_E":null,
"ATTRIBUTION_F":null,
"ATTRIBUTION_G":null,
"ATTRIBUTION_H":null,
"ATTRIBUTION_I":null,
"ATTRIBUTION_J":null,
"EDIT_TIME":"2018\/3\/10 22:13:18",
"EDITOR":"shc",
"DESCRIBE":"84",
"IMAGE":"0",
"OUTINTERFACE":null,
"status":"1"
},
{
"ID":12608,
"NAME":"关于南通水道浅点的航道通告",
"LEG":null,
"FEATURECLASS":"N03",
"SMALLCLASS":"N0301",
"REGION":"南京",
"GEOMORDINATESARRAY":"[120.82467,31.989471,120.822655,31.991182,120.809135,32.00039,120.78639,32.006176,120.78716,32.009598,120.81072,32.003265,120.82748,31.991718,120.82467,31.989471]",
"END_LAT":32.009598,
"END_LON":120.82748,
"START_LAT":31.989471,
"START_LON":120.78639,
"BASETYPE":"2",
"DUIYINGDICENG":null,
"CREATE_TIME":"2018\/3\/14 09:07:09",
"CREATOR":"shc",
"REMARK":null,
"ATTRIBUTION_A":null,
"ATTRIBUTION_B":null,
"ATTRIBUTION_C":null,
"ATTRIBUTION_D":null,
"ATTRIBUTION_E":null,
"ATTRIBUTION_F":null,
"ATTRIBUTION_G":null,
"ATTRIBUTION_H":null,
"ATTRIBUTION_I":null,
"ATTRIBUTION_J":null,
"EDIT_TIME":"2018\/3\/14 09:07:09",
"EDITOR":"shc",
"DESCRIBE":"84",
"IMAGE":"0",
"OUTINTERFACE":null,
"status":"1"
},
{
"ID":12609,
"NAME":"关于福姜沙水道（南水道）浅点的航道通告",
"LEG":null,
"FEATURECLASS":"N03",
"SMALLCLASS":"N0301",
"REGION":"南京",
"GEOMORDINATESARRAY":"[120.349236,31.966661,120.350784,31.962948,120.37464,31.967752,120.37344,31.971539,120.349236,31.966661]",
"END_LAT":31.971539,
"END_LON":120.37464,
"START_LAT":31.962948,
"START_LON":120.349236,
"BASETYPE":"2",
"DUIYINGDICENG":null,
"CREATE_TIME":"2018\/3\/15 10:02:21",
"CREATOR":"shc",
"REMARK":null,
"ATTRIBUTION_A":null,
"ATTRIBUTION_B":null,
"ATTRIBUTION_C":null,
"ATTRIBUTION_D":null,
"ATTRIBUTION_E":null,
"ATTRIBUTION_F":null,
"ATTRIBUTION_G":null,
"ATTRIBUTION_H":null,
"ATTRIBUTION_I":null,
"ATTRIBUTION_J":null,
"EDIT_TIME":"2018\/3\/15 10:02:21",
"EDITOR":"shc",
"DESCRIBE":"84",
"IMAGE":"0",
"OUTINTERFACE":null,
"status":"1"
},
{
"ID":12610,
"NAME":"#100-1红浮灯光失常",
"LEG":null,
"FEATURECLASS":"N03",
"SMALLCLASS":"N0301",
"REGION":"南京",
"GEOMORDINATESARRAY":"[3562951.0,4.0463193E7]",
"END_LAT":40463193,
"END_LON":3562951,
"START_LAT":40463193,
"START_LON":3562951,
"BASETYPE":"0",
"DUIYINGDICENG":null,
"CREATE_TIME":"2018\/3\/15 20:33:02",
"CREATOR":"zjc",
"REMARK":null,
"ATTRIBUTION_A":null,
"ATTRIBUTION_B":null,
"ATTRIBUTION_C":null,
"ATTRIBUTION_D":null,
"ATTRIBUTION_E":null,
"ATTRIBUTION_F":null,
"ATTRIBUTION_G":null,
"ATTRIBUTION_H":null,
"ATTRIBUTION_I":null,
"ATTRIBUTION_J":null,
"EDIT_TIME":"2018\/3\/15 20:33:02",
"EDITOR":"zjc",
"DESCRIBE":"84",
"IMAGE":"0",
"OUTINTERFACE":null,
"status":"0"
},
{
"ID":12611,
"NAME":"#100-1红浮灯光失常",
"LEG":null,
"FEATURECLASS":"N03",
"SMALLCLASS":"N0301",
"REGION":"南京",
"GEOMORDINATESARRAY":"[119.6104,32.1892]",
"END_LAT":32.1892,
"END_LON":119.6104,
"START_LAT":32.1892,
"START_LON":119.6104,
"BASETYPE":"0",
"DUIYINGDICENG":null,
"CREATE_TIME":"2018\/3\/15 20:34:42",
"CREATOR":"zjc",
"REMARK":null,
"ATTRIBUTION_A":null,
"ATTRIBUTION_B":null,
"ATTRIBUTION_C":null,
"ATTRIBUTION_D":null,
"ATTRIBUTION_E":null,
"ATTRIBUTION_F":null,
"ATTRIBUTION_G":null,
"ATTRIBUTION_H":null,
"ATTRIBUTION_I":null,
"ATTRIBUTION_J":null,
"EDIT_TIME":"2018\/3\/15 20:34:42",
"EDITOR":"zjc",
"DESCRIBE":"84",
"IMAGE":"0",
"OUTINTERFACE":null,
"status":"1"
},
{
"ID":12612,
"NAME":"#100-1红浮恢复正常",
"LEG":null,
"FEATURECLASS":"N03",
"SMALLCLASS":"N0301",
"REGION":"南京",
"GEOMORDINATESARRAY":"[119.6101,32.1892]",
"END_LAT":32.1892,
"END_LON":119.6101,
"START_LAT":32.1892,
"START_LON":119.6101,
"BASETYPE":"0",
"DUIYINGDICENG":null,
"CREATE_TIME":"2018\/3\/16 10:18:57",
"CREATOR":"zjc",
"REMARK":null,
"ATTRIBUTION_A":null,
"ATTRIBUTION_B":null,
"ATTRIBUTION_C":null,
"ATTRIBUTION_D":null,
"ATTRIBUTION_E":null,
"ATTRIBUTION_F":null,
"ATTRIBUTION_G":null,
"ATTRIBUTION_H":null,
"ATTRIBUTION_I":null,
"ATTRIBUTION_J":null,
"EDIT_TIME":"2018\/3\/16 10:18:57",
"EDITOR":"zjc",
"DESCRIBE":"84",
"IMAGE":"0",
"OUTINTERFACE":null,
"status":"1"
},
{
"ID":12613,
"NAME":"天采#9专用浮灯光失常",
"LEG":null,
"FEATURECLASS":"N03",
"SMALLCLASS":"N0301",
"REGION":"南京",
"GEOMORDINATESARRAY":"[119.929,32.105]",
"END_LAT":32.105,
"END_LON":119.929,
"START_LAT":32.105,
"START_LON":119.929,
"BASETYPE":"0",
"DUIYINGDICENG":null,
"CREATE_TIME":"2018\/3\/19 16:07:58",
"CREATOR":"zjc",
"REMARK":null,
"ATTRIBUTION_A":null,
"ATTRIBUTION_B":null,
"ATTRIBUTION_C":null,
"ATTRIBUTION_D":null,
"ATTRIBUTION_E":null,
"ATTRIBUTION_F":null,
"ATTRIBUTION_G":null,
"ATTRIBUTION_H":null,
"ATTRIBUTION_I":null,
"ATTRIBUTION_J":null,
"EDIT_TIME":"2018\/3\/19 16:07:58",
"EDITOR":"zjc",
"DESCRIBE":"84",
"IMAGE":"0",
"OUTINTERFACE":null,
"status":"1"
},
{
"ID":12614,
"NAME":"天采#9专用浮灯光失常",
"LEG":null,
"FEATURECLASS":"N03",
"SMALLCLASS":"N0301",
"REGION":"南京",
"GEOMORDINATESARRAY":"[119.9287,32.1045]",
"END_LAT":32.1045,
"END_LON":119.9287,
"START_LAT":32.1045,
"START_LON":119.9287,
"BASETYPE":"0",
"DUIYINGDICENG":null,
"CREATE_TIME":"2018\/3\/19 16:11:43",
"CREATOR":"zjc",
"REMARK":null,
"ATTRIBUTION_A":null,
"ATTRIBUTION_B":null,
"ATTRIBUTION_C":null,
"ATTRIBUTION_D":null,
"ATTRIBUTION_E":null,
"ATTRIBUTION_F":null,
"ATTRIBUTION_G":null,
"ATTRIBUTION_H":null,
"ATTRIBUTION_I":null,
"ATTRIBUTION_J":null,
"EDIT_TIME":"2018\/3\/19 16:11:43",
"EDITOR":"zjc",
"DESCRIBE":"84",
"IMAGE":"0",
"OUTINTERFACE":null,
"status":"1"
},
{
"ID":12615,
"NAME":"天采#9恢复正常",
"LEG":null,
"FEATURECLASS":"N03",
"SMALLCLASS":"N0301",
"REGION":"南京",
"GEOMORDINATESARRAY":"[119.9287,32.1045]",
"END_LAT":32.1045,
"END_LON":119.9287,
"START_LAT":32.1045,
"START_LON":119.9287,
"BASETYPE":"0",
"DUIYINGDICENG":null,
"CREATE_TIME":"2018\/3\/19 19:22:20",
"CREATOR":"zjc",
"REMARK":null,
"ATTRIBUTION_A":null,
"ATTRIBUTION_B":null,
"ATTRIBUTION_C":null,
"ATTRIBUTION_D":null,
"ATTRIBUTION_E":null,
"ATTRIBUTION_F":null,
"ATTRIBUTION_G":null,
"ATTRIBUTION_H":null,
"ATTRIBUTION_I":null,
"ATTRIBUTION_J":null,
"EDIT_TIME":"2018\/3\/19 19:22:20",
"EDITOR":"zjc",
"DESCRIBE":"84",
"IMAGE":"0",
"OUTINTERFACE":null,
"status":"1"
},
{
"ID":12616,
"NAME":"关于福姜沙北水道浅点的航道通告",
"LEG":null,
"FEATURECLASS":"N03",
"SMALLCLASS":"N0301",
"REGION":"南京",
"GEOMORDINATESARRAY":"[120.484634,32.07185,120.48502,32.07007,120.50266,32.070976,120.51223,32.0693,120.52665,32.063522,120.527596,32.064976,120.51347,32.07105,120.503136,32.07287,120.484634,32.07185]",
"END_LAT":32.07287,
"END_LON":120.527596,
"START_LAT":32.063522,
"START_LON":120.484634,
"BASETYPE":"2",
"DUIYINGDICENG":null,
"CREATE_TIME":"2018\/3\/20 09:05:20",
"CREATOR":"shc",
"REMARK":null,
"ATTRIBUTION_A":null,
"ATTRIBUTION_B":null,
"ATTRIBUTION_C":null,
"ATTRIBUTION_D":null,
"ATTRIBUTION_E":null,
"ATTRIBUTION_F":null,
"ATTRIBUTION_G":null,
"ATTRIBUTION_H":null,
"ATTRIBUTION_I":null,
"ATTRIBUTION_J":null,
"EDIT_TIME":"2018\/3\/20 09:05:20",
"EDITOR":"shc",
"DESCRIBE":"84",
"IMAGE":"0",
"OUTINTERFACE":null,
"status":"1"
},
{
"ID":12617,
"NAME":"关于福姜沙水道（南水道）浅点的航道通告",
"LEG":null,
"FEATURECLASS":"N03",
"SMALLCLASS":"N0301",
"REGION":"南京",
"GEOMORDINATESARRAY":"[120.42925,31.971268,120.429726,31.970285,120.4378,31.972687,120.440025,31.973852,120.43883,31.974981,120.42925,31.971268]",
"END_LAT":31.974981,
"END_LON":120.440025,
"START_LAT":31.970285,
"START_LON":120.42925,
"BASETYPE":"2",
"DUIYINGDICENG":null,
"CREATE_TIME":"2018\/3\/20 09:07:06",
"CREATOR":"shc",
"REMARK":null,
"ATTRIBUTION_A":null,
"ATTRIBUTION_B":null,
"ATTRIBUTION_C":null,
"ATTRIBUTION_D":null,
"ATTRIBUTION_E":null,
"ATTRIBUTION_F":null,
"ATTRIBUTION_G":null,
"ATTRIBUTION_H":null,
"ATTRIBUTION_I":null,
"ATTRIBUTION_J":null,
"EDIT_TIME":"2018\/3\/20 09:07:06",
"EDITOR":"shc",
"DESCRIBE":"84",
"IMAGE":"0",
"OUTINTERFACE":null,
"status":"1"
},
{
"ID":12618,
"NAME":"#71红浮被打失常",
"LEG":null,
"FEATURECLASS":"N03",
"SMALLCLASS":"N0301",
"REGION":"南京",
"GEOMORDINATESARRAY":"[120.0187,31.9691]",
"END_LAT":31.9691,
"END_LON":120.0187,
"START_LAT":31.9691,
"START_LON":120.0187,
"BASETYPE":"0",
"DUIYINGDICENG":null,
"CREATE_TIME":"2018\/3\/20 19:58:22",
"CREATOR":"zjc",
"REMARK":null,
"ATTRIBUTION_A":null,
"ATTRIBUTION_B":null,
"ATTRIBUTION_C":null,
"ATTRIBUTION_D":null,
"ATTRIBUTION_E":null,
"ATTRIBUTION_F":null,
"ATTRIBUTION_G":null,
"ATTRIBUTION_H":null,
"ATTRIBUTION_I":null,
"ATTRIBUTION_J":null,
"EDIT_TIME":"2018\/3\/20 19:58:22",
"EDITOR":"zjc",
"DESCRIBE":"84",
"IMAGE":"0",
"OUTINTERFACE":null,
"status":"1"
},
{
"ID":12619,
"NAME":"#71红浮恢复正常",
"LEG":null,
"FEATURECLASS":"N03",
"SMALLCLASS":"N0301",
"REGION":"南京",
"GEOMORDINATESARRAY":"[32.3173,119.7283]",
"END_LAT":119.7283,
"END_LON":32.3173,
"START_LAT":119.7283,
"START_LON":32.3173,
"BASETYPE":"0",
"DUIYINGDICENG":null,
"CREATE_TIME":"2018\/3\/21 17:12:54",
"CREATOR":"zjc",
"REMARK":null,
"ATTRIBUTION_A":null,
"ATTRIBUTION_B":null,
"ATTRIBUTION_C":null,
"ATTRIBUTION_D":null,
"ATTRIBUTION_E":null,
"ATTRIBUTION_F":null,
"ATTRIBUTION_G":null,
"ATTRIBUTION_H":null,
"ATTRIBUTION_I":null,
"ATTRIBUTION_J":null,
"EDIT_TIME":"2018\/3\/21 17:12:54",
"EDITOR":"zjc",
"DESCRIBE":"84",
"IMAGE":"0",
"OUTINTERFACE":null,
"status":"0"
},
{
"ID":12620,
"NAME":"#71红浮恢复正常",
"LEG":null,
"FEATURECLASS":"N03",
"SMALLCLASS":"N0301",
"REGION":"南京",
"GEOMORDINATESARRAY":"[120.0188,31.9691]",
"END_LAT":31.9691,
"END_LON":120.0188,
"START_LAT":31.9691,
"START_LON":120.0188,
"BASETYPE":"0",
"DUIYINGDICENG":null,
"CREATE_TIME":"2018\/3\/21 17:14:11",
"CREATOR":"zjc",
"REMARK":null,
"ATTRIBUTION_A":null,
"ATTRIBUTION_B":null,
"ATTRIBUTION_C":null,
"ATTRIBUTION_D":null,
"ATTRIBUTION_E":null,
"ATTRIBUTION_F":null,
"ATTRIBUTION_G":null,
"ATTRIBUTION_H":null,
"ATTRIBUTION_I":null,
"ATTRIBUTION_J":null,
"EDIT_TIME":"2018\/3\/21 17:14:11",
"EDITOR":"zjc",
"DESCRIBE":"84",
"IMAGE":"0",
"OUTINTERFACE":null,
"status":"1"
},
{
"ID":12621,
"NAME":"关于浏海沙水道推荐航路浅点的航道通告",
"LEG":null,
"FEATURECLASS":"N03",
"SMALLCLASS":"N0301",
"REGION":"南京",
"GEOMORDINATESARRAY":"[120.50501,32.03004,120.50385,32.02775,120.53518,32.016685,120.53655,32.018944,120.50501,32.03004]",
"END_LAT":32.03004,
"END_LON":120.53655,
"START_LAT":32.016685,
"START_LON":120.50385,
"BASETYPE":"2",
"DUIYINGDICENG":null,
"CREATE_TIME":"2018\/3\/22 16:30:50",
"CREATOR":"shc",
"REMARK":null,
"ATTRIBUTION_A":null,
"ATTRIBUTION_B":null,
"ATTRIBUTION_C":null,
"ATTRIBUTION_D":null,
"ATTRIBUTION_E":null,
"ATTRIBUTION_F":null,
"ATTRIBUTION_G":null,
"ATTRIBUTION_H":null,
"ATTRIBUTION_I":null,
"ATTRIBUTION_J":null,
"EDIT_TIME":"2018\/3\/22 16:30:50",
"EDITOR":"shc",
"DESCRIBE":"84",
"IMAGE":"0",
"OUTINTERFACE":null,
"status":"1"
},
{
"ID":12622,
"NAME":"关于南通水道浅点的航道通告",
"LEG":null,
"FEATURECLASS":"N03",
"SMALLCLASS":"N0301",
"REGION":"南京",
"GEOMORDINATESARRAY":"[120.82499,31.98916,120.8043,32.00175,120.785736,32.007633,120.78629,32.00898,120.80753,32.002357,120.82622,31.990425,120.82499,31.98916]",
"END_LAT":32.00898,
"END_LON":120.82622,
"START_LAT":31.98916,
"START_LON":120.785736,
"BASETYPE":"2",
"DUIYINGDICENG":null,
"CREATE_TIME":"2018\/3\/23 09:24:50",
"CREATOR":"shc",
"REMARK":null,
"ATTRIBUTION_A":null,
"ATTRIBUTION_B":null,
"ATTRIBUTION_C":null,
"ATTRIBUTION_D":null,
"ATTRIBUTION_E":null,
"ATTRIBUTION_F":null,
"ATTRIBUTION_G":null,
"ATTRIBUTION_H":null,
"ATTRIBUTION_I":null,
"ATTRIBUTION_J":null,
"EDIT_TIME":"2018\/3\/23 09:24:50",
"EDITOR":"shc",
"DESCRIBE":"84",
"IMAGE":"0",
"OUTINTERFACE":null,
"status":"1"
},
{
"ID":12623,
"NAME":"关于浏河水道推荐航路浅点的航道通告",
"LEG":null,
"FEATURECLASS":"N03",
"SMALLCLASS":"N0301",
"REGION":"南京",
"GEOMORDINATESARRAY":"[121.324104,31.547474,121.33192,31.553728,121.31578,31.570951,121.30754,31.565393,121.324104,31.547474]",
"END_LAT":31.570951,
"END_LON":121.33192,
"START_LAT":31.547474,
"START_LON":121.30754,
"BASETYPE":"2",
"DUIYINGDICENG":null,
"CREATE_TIME":"2018\/3\/23 09:25:58",
"CREATOR":"shc",
"REMARK":null,
"ATTRIBUTION_A":null,
"ATTRIBUTION_B":null,
"ATTRIBUTION_C":null,
"ATTRIBUTION_D":null,
"ATTRIBUTION_E":null,
"ATTRIBUTION_F":null,
"ATTRIBUTION_G":null,
"ATTRIBUTION_H":null,
"ATTRIBUTION_I":null,
"ATTRIBUTION_J":null,
"EDIT_TIME":"2018\/3\/23 09:25:58",
"EDITOR":"shc",
"DESCRIBE":"84",
"IMAGE":"0",
"OUTINTERFACE":null,
"status":"1"
},
{
"ID":12624,
"NAME":"关于营船港专用航道浅点的航道通告",
"LEG":null,
"FEATURECLASS":"N03",
"SMALLCLASS":"N0301",
"REGION":"南京",
"GEOMORDINATESARRAY":"[120.97184,31.782434,120.962616,31.790642,120.97407,31.789875,120.97802,31.782288,120.97184,31.782434]",
"END_LAT":31.790642,
"END_LON":120.97802,
"START_LAT":31.782288,
"START_LON":120.962616,
"BASETYPE":"2",
"DUIYINGDICENG":null,
"CREATE_TIME":"2018\/3\/23 09:27:42",
"CREATOR":"shc",
"REMARK":null,
"ATTRIBUTION_A":null,
"ATTRIBUTION_B":null,
"ATTRIBUTION_C":null,
"ATTRIBUTION_D":null,
"ATTRIBUTION_E":null,
"ATTRIBUTION_F":null,
"ATTRIBUTION_G":null,
"ATTRIBUTION_H":null,
"ATTRIBUTION_I":null,
"ATTRIBUTION_J":null,
"EDIT_TIME":"2018\/3\/23 09:27:42",
"EDITOR":"shc",
"DESCRIBE":"84",
"IMAGE":"0",
"OUTINTERFACE":null,
"status":"1"
},
{
"ID":12625,
"NAME":"关于浏河水道浅点的航道通告",
"LEG":null,
"FEATURECLASS":"N03",
"SMALLCLASS":"N0301",
"REGION":"南京",
"GEOMORDINATESARRAY":"[121.332664,31.552847,121.31507,31.570837,121.30649,31.564476,121.32271,31.545824,121.332664,31.552847]",
"END_LAT":31.570837,
"END_LON":121.332664,
"START_LAT":31.545824,
"START_LON":121.30649,
"BASETYPE":"2",
"DUIYINGDICENG":null,
"CREATE_TIME":"2018\/3\/23 10:22:31",
"CREATOR":"shc",
"REMARK":null,
"ATTRIBUTION_A":null,
"ATTRIBUTION_B":null,
"ATTRIBUTION_C":null,
"ATTRIBUTION_D":null,
"ATTRIBUTION_E":null,
"ATTRIBUTION_F":null,
"ATTRIBUTION_G":null,
"ATTRIBUTION_H":null,
"ATTRIBUTION_I":null,
"ATTRIBUTION_J":null,
"EDIT_TIME":"2018\/3\/23 10:22:31",
"EDITOR":"shc",
"DESCRIBE":"84",
"IMAGE":"0",
"OUTINTERFACE":null,
"status":"1"
},
{
"ID":12626,
"NAME":"关于浏河水道 疏浚施工的航道通告",
"LEG":null,
"FEATURECLASS":"N03",
"SMALLCLASS":"N0301",
"REGION":"南京",
"GEOMORDINATESARRAY":"[121.32348,31.546337,121.30734,31.564257,121.31507,31.57113,121.33258,31.553066,121.32348,31.546337]",
"END_LAT":31.57113,
"END_LON":121.33258,
"START_LAT":31.546337,
"START_LON":121.30734,
"BASETYPE":"2",
"DUIYINGDICENG":null,
"CREATE_TIME":"2018\/3\/23 10:23:11",
"CREATOR":"shc",
"REMARK":null,
"ATTRIBUTION_A":null,
"ATTRIBUTION_B":null,
"ATTRIBUTION_C":null,
"ATTRIBUTION_D":null,
"ATTRIBUTION_E":null,
"ATTRIBUTION_F":null,
"ATTRIBUTION_G":null,
"ATTRIBUTION_H":null,
"ATTRIBUTION_I":null,
"ATTRIBUTION_J":null,
"EDIT_TIME":"2018\/3\/23 10:23:11",
"EDITOR":"shc",
"DESCRIBE":"84",
"IMAGE":"0",
"OUTINTERFACE":null,
"status":"1"
},
{
"ID":12627,
"NAME":"张南水道整治建筑物开始进行维修",
"LEG":null,
"FEATURECLASS":"N03",
"SMALLCLASS":"N0301",
"REGION":"南京",
"GEOMORDINATESARRAY":"[116.19259,29.753819,116.19666,29.760935,116.21001,29.758587,116.210266,29.753483,116.19259,29.753819]",
"END_LAT":29.760935,
"END_LON":116.210266,
"START_LAT":29.753483,
"START_LON":116.19259,
"BASETYPE":"2",
"DUIYINGDICENG":null,
"CREATE_TIME":"2018\/3\/28 14:34:32",
"CREATOR":"jjc",
"REMARK":null,
"ATTRIBUTION_A":null,
"ATTRIBUTION_B":null,
"ATTRIBUTION_C":null,
"ATTRIBUTION_D":null,
"ATTRIBUTION_E":null,
"ATTRIBUTION_F":null,
"ATTRIBUTION_G":null,
"ATTRIBUTION_H":null,
"ATTRIBUTION_I":null,
"ATTRIBUTION_J":null,
"EDIT_TIME":"2018\/3\/28 14:34:32",
"EDITOR":"jjc",
"DESCRIBE":"84",
"IMAGE":"0",
"OUTINTERFACE":null,
"status":"1"
},
{
"ID":12628,
"NAME":"关于福姜沙北水道浅点的航道通告",
"LEG":null,
"FEATURECLASS":"N03",
"SMALLCLASS":"N0301",
"REGION":"南京",
"GEOMORDINATESARRAY":"[120.52673,32.06339,120.511795,32.069206,120.502266,32.071026,120.4851,32.06964,120.48433,32.072334,120.50295,32.073498,120.51394,32.071316,120.52819,32.0655,120.52673,32.06339]",
"END_LAT":32.073498,
"END_LON":120.52819,
"START_LAT":32.06339,
"START_LON":120.48433,
"BASETYPE":"2",
"DUIYINGDICENG":null,
"CREATE_TIME":"2018\/3\/30 13:54:15",
"CREATOR":"shc",
"REMARK":null,
"ATTRIBUTION_A":null,
"ATTRIBUTION_B":null,
"ATTRIBUTION_C":null,
"ATTRIBUTION_D":null,
"ATTRIBUTION_E":null,
"ATTRIBUTION_F":null,
"ATTRIBUTION_G":null,
"ATTRIBUTION_H":null,
"ATTRIBUTION_I":null,
"ATTRIBUTION_J":null,
"EDIT_TIME":"2018\/3\/30 13:54:15",
"EDITOR":"shc",
"DESCRIBE":"84",
"IMAGE":"0",
"OUTINTERFACE":null,
"status":"1"
},
{
"ID":12629,
"NAME":"关于南通水道浅点的航道通告",
"LEG":null,
"FEATURECLASS":"N03",
"SMALLCLASS":"N0301",
"REGION":"南京",
"GEOMORDINATESARRAY":"[120.786476,32.00956,120.785614,32.00694,120.808876,31.999659,120.8239,31.989468,120.82733,31.991652,120.809906,32.003227,120.786476,32.00956]",
"END_LAT":32.00956,
"END_LON":120.82733,
"START_LAT":31.989468,
"START_LON":120.785614,
"BASETYPE":"2",
"DUIYINGDICENG":null,
"CREATE_TIME":"2018\/3\/30 13:55:31",
"CREATOR":"shc",
"REMARK":null,
"ATTRIBUTION_A":null,
"ATTRIBUTION_B":null,
"ATTRIBUTION_C":null,
"ATTRIBUTION_D":null,
"ATTRIBUTION_E":null,
"ATTRIBUTION_F":null,
"ATTRIBUTION_G":null,
"ATTRIBUTION_H":null,
"ATTRIBUTION_I":null,
"ATTRIBUTION_J":null,
"EDIT_TIME":"2018\/4\/17 08:34:33",
"EDITOR":"njc",
"DESCRIBE":"84",
"IMAGE":"0",
"OUTINTERFACE":null,
"status":"1"
},
{
"ID":12630,
"NAME":"关于福姜沙水道（南水道）浅点的航道通告",
"LEG":null,
"FEATURECLASS":"N03",
"SMALLCLASS":"N0301",
"REGION":"南京",
"GEOMORDINATESARRAY":"[120.348946,31.966654,120.350876,31.962976,120.37448,31.967419,120.37418,31.971241,120.348946,31.966654]",
"END_LAT":31.971241,
"END_LON":120.37448,
"START_LAT":31.962976,
"START_LON":120.348946,
"BASETYPE":"2",
"DUIYINGDICENG":null,
"CREATE_TIME":"2018\/4\/13 10:20:56",
"CREATOR":"shc",
"REMARK":null,
"ATTRIBUTION_A":null,
"ATTRIBUTION_B":null,
"ATTRIBUTION_C":null,
"ATTRIBUTION_D":null,
"ATTRIBUTION_E":null,
"ATTRIBUTION_F":null,
"ATTRIBUTION_G":null,
"ATTRIBUTION_H":null,
"ATTRIBUTION_I":null,
"ATTRIBUTION_J":null,
"EDIT_TIME":"2018\/4\/13 10:20:56",
"EDITOR":"shc",
"DESCRIBE":"84",
"IMAGE":"0",
"OUTINTERFACE":null,
"status":"1"
},
{
"ID":12631,
"NAME":"关于福姜沙北水道浅点的航道通告",
"LEG":null,
"FEATURECLASS":"N03",
"SMALLCLASS":"N0301",
"REGION":"南京",
"GEOMORDINATESARRAY":"[120.48505,32.071953,120.48533,32.070114,120.502815,32.071243,120.50285,32.073006,120.48505,32.071953]",
"END_LAT":32.073006,
"END_LON":120.50285,
"START_LAT":32.070114,
"START_LON":120.48505,
"BASETYPE":"2",
"DUIYINGDICENG":null,
"CREATE_TIME":"2018\/4\/16 11:06:15",
"CREATOR":"shc",
"REMARK":null,
"ATTRIBUTION_A":null,
"ATTRIBUTION_B":null,
"ATTRIBUTION_C":null,
"ATTRIBUTION_D":null,
"ATTRIBUTION_E":null,
"ATTRIBUTION_F":null,
"ATTRIBUTION_G":null,
"ATTRIBUTION_H":null,
"ATTRIBUTION_I":null,
"ATTRIBUTION_J":null,
"EDIT_TIME":"2018\/4\/16 11:06:15",
"EDITOR":"shc",
"DESCRIBE":"84",
"IMAGE":"0",
"OUTINTERFACE":null,
"status":"1"
},
{
"ID":12632,
"NAME":"关于南通水道浅点的航道通告",
"LEG":null,
"FEATURECLASS":"N03",
"SMALLCLASS":"N0301",
"REGION":"南京",
"GEOMORDINATESARRAY":"[120.82352,31.989553,120.80721,31.999744,120.78627,32.006588,120.78696,32.00979,120.8103,32.00324,120.82781,31.99203,120.82352,31.989553]",
"END_LAT":32.00979,
"END_LON":120.82781,
"START_LAT":31.989553,
"START_LON":120.78627,
"BASETYPE":"2",
"DUIYINGDICENG":null,
"CREATE_TIME":"2018\/4\/16 11:09:57",
"CREATOR":"shc",
"REMARK":null,
"ATTRIBUTION_A":null,
"ATTRIBUTION_B":null,
"ATTRIBUTION_C":null,
"ATTRIBUTION_D":null,
"ATTRIBUTION_E":null,
"ATTRIBUTION_F":null,
"ATTRIBUTION_G":null,
"ATTRIBUTION_H":null,
"ATTRIBUTION_I":null,
"ATTRIBUTION_J":null,
"EDIT_TIME":"2018\/4\/16 11:09:57",
"EDITOR":"shc",
"DESCRIBE":"84",
"IMAGE":"0",
"OUTINTERFACE":null,
"status":"1"
},
{
"ID":12633,
"NAME":"关于贵池水道北港相关水域禁止驶入的提示",
"LEG":null,
"FEATURECLASS":"N03",
"SMALLCLASS":"N0301",
"REGION":"南京",
"GEOMORDINATESARRAY":"[117.480095,30.757252,117.48147,30.754005,117.45031,30.741318,117.449455,30.745228,117.480095,30.757252]",
"END_LAT":30.757252,
"END_LON":117.48147,
"START_LAT":30.741318,
"START_LON":117.449455,
"BASETYPE":"2",
"DUIYINGDICENG":null,
"CREATE_TIME":"2018\/4\/16 16:14:53",
"CREATOR":"whc",
"REMARK":null,
"ATTRIBUTION_A":null,
"ATTRIBUTION_B":null,
"ATTRIBUTION_C":null,
"ATTRIBUTION_D":null,
"ATTRIBUTION_E":null,
"ATTRIBUTION_F":null,
"ATTRIBUTION_G":null,
"ATTRIBUTION_H":null,
"ATTRIBUTION_I":null,
"ATTRIBUTION_J":null,
"EDIT_TIME":"2018\/4\/16 16:14:53",
"EDITOR":"whc",
"DESCRIBE":"84",
"IMAGE":"0",
"OUTINTERFACE":null,
"status":"1"
},
{
"ID":13300,
"NAME":"#80-1黑浮上游100米有沉船",
"LEG":null,
"FEATURECLASS":"N03",
"SMALLCLASS":"N0301",
"REGION":"南京",
"GEOMORDINATESARRAY":"[119.894,32.1422]",
"END_LAT":32.1422,
"END_LON":119.894,
"START_LAT":32.1422,
"START_LON":119.894,
"BASETYPE":"0",
"DUIYINGDICENG":null,
"CREATE_TIME":"2018\/4\/17 14:06:13",
"CREATOR":"zjc",
"REMARK":null,
"ATTRIBUTION_A":null,
"ATTRIBUTION_B":null,
"ATTRIBUTION_C":null,
"ATTRIBUTION_D":null,
"ATTRIBUTION_E":null,
"ATTRIBUTION_F":null,
"ATTRIBUTION_G":null,
"ATTRIBUTION_H":null,
"ATTRIBUTION_I":null,
"ATTRIBUTION_J":null,
"EDIT_TIME":"2018\/4\/17 14:06:13",
"EDITOR":"zjc",
"DESCRIBE":"84",
"IMAGE":"0",
"OUTINTERFACE":null,
"status":"1"
},